province,district,address,latitude,longitude
Hưng Yên,Tỉnh Hưng Yên,"Điện máy Xanh Thôn Nghĩa Xuyên, Xã Trung Hòa, Huyện Yên Mỹ",20.86752,106.063963
Hưng Yên,huyện Tiên Lữ,"Điện máy Xanh Thôn Thụy Lôi, xã Thụy Lôi",20.699807,106.117487
Hưng Yên,Thành Phố Hưng Yên,"Điện máy Xanh Số 335 Nguyễn Văn Linh, Phường An Tảo",20.668136,106.05921
Khánh Hòa,Tỉnh Khánh Hòa,"Điện máy Xanh 47 đường 23/10, Phường Phương Sơn, Thành phố Nha Trang",12.243874,109.192813
Khánh Hòa,Huyện Diên Khánh,"Điện máy Xanh Thôn Xuân Đông, Xã Diên Xuân",12.256902,109.098592
Hà Tĩnh,Tỉnh Hà Tĩnh (Ngã tư Trung Tâm,"Điện máy Xanh Khối 4, Thị trấn Tây Sơn, Huyện Hương Sơn",18.458133,105.300852
Hải Phòng,huyện Tiên Lãng,"Điện máy Xanh Thôn An Thung, xã Tiên Cường",20.7806434,106.5144637
Hải Dương,huyện Tứ Kỳ,Điện máy Xanh Xã Nguyên Giáp,20.76067,106.491167
Hải Dương,H. Thanh Hà,"Điện máy Xanh Tỉnh lộ 390, Thôn Xuân An, X. Thanh Khê",20.898012,106.42037
Hải Dương,Huyện Tứ Kỳ,Điện máy Xanh Xã Hưng Đạo,20.85779,106.3746
Hưng Yên,H. Văn Lâm,Điện máy Xanh TT. Như Quỳnh,20.981587,105.98131
Hưng Yên,Tỉnh Hưng Yên (Cạnh ngân hàng MB Bank,"Điện máy Xanh Đường Nguyễn Khoái, Thị Trấn Khoái Châu, Huyện Khoái Châu",20.839225,105.97606
Hưng Yên,Huyện Ân Thi,"Điện máy Xanh Phố Nguyễn Trung Ngạn, Thị Trấn Ân Thi",20.817307,106.088197
Hưng Yên,Huyện Kim Động,Điện máy Xanh Xã Nghĩa Dân,20.789092,106.047498
Hưng Yên,H. Mỹ Hào,"Điện máy Xanh Thôn Trại, X. Dị Sử",20.926093,106.08476
Hưng Yên,huyện Kim Động,"Điện máy Xanh Thôn Quang Tiến, xã Thọ Vinh",20.75504,105.98803
Hưng Yên,H. Kim Động,"Điện máy Xanh 200 Nguyễn Lương Bằng, Thôn Lương Hội, TT.Lương Bằng",20.741173,106.05865
Hưng Yên,T. Hưng Yên (KCN Phố Nối B,"Điện máy Xanh 55 đường 39A, xã Nghĩa Hiệp, huyện Yên Mỹ",20.928847,106.05783
Hưng Yên,Huyện Tiên Lữ,"Điện máy Xanh Khu Phố Ba Hàng, Xã Thủ Sỹ",20.64571,106.1032
Khánh Hòa,TP Nha Trang,"Điện máy Xanh Số 10 đường 2 Tháng 4, P. Vĩnh Hải",12.27761,109.19663
Khánh Hòa,Thành Phố Cam Ranh,"Điện máy Xanh 2437 Đại Lộ Hùng Vương, Phường Cam Lợi",11.91429,109.13782
Khánh Hòa,Thị xã Ninh Hòa,"Điện máy Xanh Tổ dân phố 16, Phường Ninh Hiệp",12.501333,109.137611
Khánh Hòa,huyện Cam Lâm,"Điện máy Xanh Thôn Suối Cát, xã Cam Hiệp Nam",12.051344,109.159559
Khánh Hòa,thị xã Ninh Hòa,"Điện máy Xanh Thửa đất số 1499, tờ bản đồ số 10, tổ dân phố Phú Thọ 2, phường Ninh Diêm",12.537889,109.216528
Khánh Hòa,thành phố Nha Trang,"Điện máy Xanh 582 Lê Hồng Phong, phường Phước Long",12.214139,109.192
Khánh Hòa,Thị xã Ninh Hòa,"Điện máy Xanh Thôn Lạc An, xã Ninh Thọ",12.5491362,109.1653627
Khánh Hòa,Thị xã Ninh Hòa,Điện máy Xanh Xã Ninh Sim,12.536913,109.018259
Khánh Hòa,TP. Cam Ranh,"Điện máy Xanh Số 294 -296 Đại lộ Hùng Vương, tổ dân phố Hòa Thuận, P. Cam Nghĩa",11.987387,109.19197
Khánh Hòa,H. Cam Lâm,"Điện máy Xanh Số 282 Trường Chinh, TT. Cam Đức",12.057741,109.16032
Khánh Hòa,Thành phố Nha Trang,"Điện máy Xanh 17 Thái Nguyên, Phường Phước Tân",12.248147,109.18561
Khánh Hòa,TX. Ninh Hòa,"Điện máy Xanh Tổ dân phố 4, P. Ninh Hiệp",12.487583,109.12719
Khánh Hòa,Huyện Cam Lâm,"Điện máy Xanh Thôn Tân Xương 2, Xã Suối Cát",12.051344,109.159559
Hà Tĩnh,H. Thạch Hà,"Điện máy Xanh Số nhà 39, Đường Lý Tự Trọng, Tổ dân Phố 5, TT. Thạch Hà",18.366357,105.86297
Hà Tĩnh,huyện Can Lộc,"Điện máy Xanh 64 Xô Viết Nghệ Tĩnh, Thị trấn Nghèn",18.454126,105.77544
Hà Tĩnh,huyện Nghi Xuân,"Điện máy Xanh Thôn Nam Sơn, xã Cương Gián",18.6616,105.756349
Hà Tĩnh,T.X Kỳ Anh,"Điện máy Xanh Đường Quang Trung, P.Sông Trí",18.078358,106.28862
Hà Tĩnh,H. Hương Sơn,"Điện máy Xanh Số 189, Quốc lộ 8A, Khối 12, TT. Phố Châu",18.508392,105.42481
Hà Tĩnh,huyện Nghi Xuân,"Điện máy Xanh Khối 7, thị trấn Xuân An",18.644119,105.720249
Hà Tĩnh,Huyện Kỳ Anh,"Điện máy Xanh Xóm 8, Xã Kỳ Phong",18.197862,106.167802
Hà Tĩnh,H. Hương Khê,"Điện máy Xanh Số 396 Trần Phú, TT. Hương Khê",18.172894,105.70265
Hà Tĩnh,TP. Hà Tĩnh,"Điện máy Xanh Số 173 Hà Huy Tập, P. Nam Hà",18.330453,105.90309
Hà Tĩnh,Huyện Nghi Xuân,"Điện máy Xanh Tổ dân phố 3, Thị trấn Tiên Điền",18.66294,105.76009
Hà Tĩnh,TX. Hồng Lĩnh,"Điện máy Xanh 105-107-109 Trần Phú, P. Nam Hồng",18.529488,105.69904
Hải Phòng,Thành phố Hải Phòng,"Điện máy Xanh Số 253 - 255 - 257 - 259 Đường Ngô Gia Tự, Phường Đằng Lâm, Quận Hải An",20.8300854,106.7051052
Hải Phòng,huyện Tiên Lãng,"Điện máy Xanh Thôn Trung Hưng, xã Bắc Hưng",20.665639,106.635501
Hải Phòng,huyện An Lão,"Điện máy Xanh Thửa đất số 510, tờ bản đồ số 1, thôn Tân Trung, xã Quang Trung",20.822937,106.556268
Hải Phòng,Huyện Thủy Nguyên,"Điện máy Xanh Thôn Giữa, Xã Quảng Thanh",20.962762,106.611893
Hải Phòng,Q. Đồ Sơn,"Điện máy Xanh Số 1596 tổ dân phố Quý Kim, P. Hợp Đức",20.749685,106.75195
Hải Dương,huyện Cẩm Giàng,"Điện máy Xanh KM 40 + 500, Quốc lộ 5A, thôn Tràng Kỹ, xã Tân Trường",20.937247,106.218255
Hải Dương,H. Bình Giang,"Điện máy Xanh Số nhà 15 Đại Lộ Hùng Vương , X. Tráng Liệt, TT. Kẻ Sặt",20.908417,106.14827
Hải Dương,TP. Hải Dương,"Điện máy Xanh Số 1 Nguyễn Lương Bằng, P. Phạm Ngũ Lão",20.938387,106.32023
Hải Dương,huyện Cẩm Giàng,"Điện máy Xanh Thôn Phú Lộc, xã Cẩm Vũ",20.9761274,106.2491427
Hải Dương,tỉnh Hải Dương (Cây xăng vòng xuyến Gia Lộc,"Điện máy Xanh Đường Quốc Lộ 37, thôn Lãng Xuyên, xã Gia Tân, huyện Gia Lộc",20.881061,106.296421
Hải Dương,huyện Nam Sách,"Điện máy Xanh Số 75 đường Hùng Vương, thị trấn Nam Sách",21.003496,106.33668
Hải Dương,Thị xã Kinh Môn,"Điện máy Xanh Thôn Thái Mông, Xã Quang Thành",21.03322,106.4317
Hải Dương,Tỉnh Hải Dương,"Điện máy Xanh Số 360-362 Lê Thánh Tông, Phường Phả Lại, Thành phố Chí Linh",21.112166,106.392682
Hải Dương,H.Kinh Môn,"Điện máy Xanh Số 203 đường Vũ Mạnh Hùng, khu 2, TT.Phú Thứ",21.026808,106.56229
Hải Dương,huyện Kim Thành,"Điện máy Xanh Thị tứ Đồng Gia, xã Đồng Gia( nay là xã Đồng Cẩm)",20.895087,106.518554
Hồ Chí Minh,H. Bình Chánh,"Điện máy Xanh C2/5 Quách Điêu, Ấp 3, X. Vĩnh Lộc A",10.831648,106.56829
Hưng Yên,Huyện Tiên Lữ,"Điện máy Xanh Khu Hòa Bình, Thị trấn Vương",20.698769,106.1185
Hưng Yên,Huyện Văn Giang,"Điện máy Xanh Chợ Mễ, Xã Mễ Sở",20.8977665,105.9279348
Hưng Yên,Tỉnh Hưng Yên,"Điện máy Xanh Đường 38B, Xã Trung Nghĩa, Thành phố Hưng Yên",20.646575,106.051863
Hưng Yên,H. Khoái Châu,"Điện máy Xanh Đội 2, thôn Yên Lịch, X. Dân Tiến",20.840546,106.00671
Hưng Yên,H.Mỹ Hào,"Điện máy Xanh Ngã tư Phố Bần, TT.Bần Yên Nhân",20.939075,106.04236
Hưng Yên,H. Văn Lâm,"Điện máy Xanh Thôn Thị Trung, X. Đình Dù",20.957512,105.99732
Hưng Yên,Huyện Văn Giang,Điện máy Xanh Thị Trấn Văn Giang,20.945289,105.934037
Hưng Yên,H. Phù Cừ,"Điện máy Xanh Phố Cao, TT. Trần Cao",20.732116,106.17639
Khánh Hòa,H. Vạn Ninh,"Điện máy Xanh 485 Hùng Vương, TT. Vạn Giã",12.692517,109.22168
Khánh Hòa,Tỉnh Khánh Hòa,"Điện máy Xanh Thôn Lộc Thọ, Xã Vạn Long, Huyện Vạn Ninh",12.696561,109.228885
Khánh Hòa,huyện Diên Khánh,"Điện máy Xanh Thôn Phò Thiện, xã Diên Phước",12.2582935,109.0534842
Khánh Hòa,huyện Khánh Vĩnh,"Điện máy Xanh Tổ 1, Thị trấn Khánh Vĩnh",12.27979,108.908076
Khánh Hòa,Thành phố Cam Ranh,"Điện máy Xanh Đường Quốc Lộ 1A, TDP Thuận Lộc, Phường Cam Thuận",11.918151,109.154493
Khánh Hòa,H. Diên Khánh,"Điện máy Xanh Dinh Thành 1, TT. Diên Khánh",12.256927,109.10553
Khánh Hòa,TP.Nha Trang,"9A Thái Nguyên, P.Phước Tân",12.2491895,109.1831374
Khánh Hòa,TP.Nha Trang,"105-105A Ngô Gia Tự, P.Tân Lập",12.241552,109.18866
Khánh Hòa,TP Nha Trang,"03 Quang Trung, P. Vạn Thạnh",12.251516,109.190324
Khánh Hòa,Tỉnh Khánh Hoà,"Số nhà 9H, Đường Lê Thánh Tôn, Phường Lộc Thọ, Thành phố Nha Trang",12.2452,109.191505
Khánh Hòa,TX. Ninh Hòa,"185-187 Trần Quý Cáp, tổ dân phố 11, P. Ninh Hiệp",12.49474,109.13148
Hà Tĩnh,TX. Kỳ Anh,"Điện máy Xanh Tổ dân phố Liên Phú, P. Kỳ Liên",18.022758,106.40457
Hà Tĩnh,H. Đức Thọ,"Điện máy Xanh Tổ dân phố 5, TT. Đức Thọ",18.538385,105.58802
Hà Tĩnh,Huyện Lộc Hà,Điện máy Xanh Xã Thạch Châu,18.441378,105.895632
Hà Tĩnh,huyện Cẩm Xuyên,"Điện máy Xanh Thôn 10, xã Cẩm Trung",18.217041,106.088907
Hà Tĩnh,Tp. Hà Tĩnh,"Điện máy Xanh Số 87-89, tổ 3, P. Trần Phú",18.342113,105.89197
Hà Tĩnh,H. Cẩm Xuyên,"Điện máy Xanh Quốc Lộ 1A, TDP, 14",18.2515446,105.9986311
Hà Tĩnh,Huyện Can Lộc,"27 Đường Xô Viết Nghệ Tĩnh, Thị Trấn Nghèn",18.455042,105.77554
Hà Tĩnh,H. Nghi Xuân,"Khối 3, TT. Xuân An",18.642077,105.71609
Hải Phòng,H. Tiên Lãng,"Điện máy Xanh Số 40 Minh Đức, khu 2, TT. Tiên Lãng",20.730838,106.56091
Hải Phòng,H. An Lão,"Điện máy Xanh Số 17 đường Nguyễn Văn Trỗi, TT. An Lão",20.821557,106.55664
Hải Phòng,Q. Hồng Bàng,"Điện máy Xanh Số 69 Đường Hồng Bàng, P. Sở Dầu",20.865234,106.65132
Hải Phòng,Quận Kiến An,"Điện máy Xanh 220 Trần Thành Ngọ, Phường Trần Thành Ngọ",20.809425,106.62603
Hải Phòng,Quận Ngô Quyền,"Điện máy Xanh 282 Đà Nẵng, Phường Vạn Mỹ",20.861111,106.71014
Hải Phòng,H. Thủy Nguyên,"Điện máy Xanh Thôn 4B, X. Tân Dương",20.893752,106.6732
Hải Dương,huyện Thanh Miện,"Điện máy Xanh Thôn Phù Tải, xã Thanh Giang",20.722926,106.251355
Hải Dương,H. Thanh Miện,"Điện máy Xanh 191 Nguyễn Lương Bằng, TT. Thanh Miện",20.78498,106.24584
Hải Dương,Huyện Ninh Giang,Điện máy Xanh Xã Tân Hương,20.7709691,106.370456
Hải Dương,TP. Hải Dương,"Điện máy Xanh Ngã tư nhà máy sứ Hải Dương, đường Phạm Ngũ Lão",20.938796,106.32117
Hải Dương,H. Kim Thành,"Điện máy Xanh Số 81-83-85 Quốc lộ 5, KP. Ga, TT. Phú Thái",20.966956,106.51079
Hải Dương,T. Hải Dương (Cách Ngã 3 Sao Đỏ 50 m,"Điện máy Xanh Số 2 Nguyễn Thái Học, P. Sao Đỏ, TX. Chí Linh",21.11328,106.39275
Hải Dương,huyện Thanh Hà,"Điện máy Xanh Thửa số 103/1+3 và 103 và 121, Tờ bản đồ 04, Xã Cẩm Chế",20.9303139,106.4308688
Hải Dương,Tỉnh Hải Dương,"Điện máy Xanh Thôn Hàm Hy, Xã Cộng Lạc, HuyệnTứ Kỳ",20.7822002,106.4546077
Hải Dương,Tỉnh Hải Dương,"Điện máy Xanh Đội 6, Thôn Đông, Xã Cổ Dũng, Huyện Kim Thành",20.965431,106.511064
Hải Dương,Tỉnh Hải Dương,"Điện máy Xanh Thôn Cậy, Xã Long Xuyên, Huyện Bình Giang",20.909712,106.147222
Hồ Chí Minh,Huyện Bình Chánh,"Điện máy Xanh C4/21, Khu Phố 3, Thị Trấn Tân Túc",10.674211,106.58051
Hồ Chí Minh,Q. Bình Tân,"Điện máy Xanh Số 1826A Tỉnh Lộ 10, khu phố 1, P. Tân Tạo",10.762065,106.5699
Hồ Chí Minh,huyện Bình Chánh,"Điện máy Xanh 1A93/2 Ấp 1, xã Phạm Văn Hai",10.770904,106.55179
Hồ Chí Minh,H. Bình Chánh,"Điện máy Xanh 2186 Vĩnh Lộc, ấp 4, xã Vĩnh Lộc B",10.812198,106.57718
Hồ Chí Minh,Huyện Bình Chánh,"Điện máy Xanh G16/41 Trần Đại Nghĩa, Ấp 7, Xã Lê Minh Xuân",10.739261,106.549552
Hồ Chí Minh,Huyện Bình Chánh,"Điện máy Xanh A4/4 Trần Văn Giàu, Ấp 1, Xã Lê Minh Xuân",10.787944,106.516194
Hồ Chí Minh,Huyện Củ Chi,Điện máy Xanh Số 271 Quốc Lộ 22,10.938917,106.54094
Hồ Chí Minh,Thành phố Thủ Đức,"Điện máy Xanh 794 Phạm Văn Đồng, Phường Hiệp Bình Chánh",10.831556,106.725889
Hồ Chí Minh,H. Hóc Môn ,"Điện máy Xanh Số 30/10 Nguyễn Ảnh Thủ, Ấp Đông , xã Thới Tam Thôn",10.873892,106.62156
Hồ Chí Minh,H. Hóc Môn ,"Điện máy Xanh Số 30/10 Nguyễn Ảnh Thủ, Ấp Đông , xã Thới Tam Thôn",10.873892,106.62156
Hồ Chí Minh,Thành phố Hồ Chí Minh,"Điện máy Xanh 137 Lê Thị Hà, Ấp Đình, Xã Tân Xuân, Huyện Hóc Môn",10.87581,106.598828
Hồ Chí Minh,Quận 1,"Điện máy Xanh 189A Cống Quỳnh, Phường Nguyễn Cư Trinh",10.767069,106.687006
Hưng Yên,Tỉnh Hưng Yên,"Điện máy Xanh Thôn Đạo Xá, Thị Trấn Yên Mỹ, Huyện Yên Mỹ",20.882754,106.035425
Hưng Yên,Huyện Yên Mỹ,"Điện máy Xanh Thôn Từ Hồ, Xã Yên Phú",20.8928,105.98513
Hưng Yên,Tp. Hưng Yên,"98-98B-100 Đường Điện Biên, P. Lê Lợi",20.651369,106.05744
Khánh Hòa,TP. Nha Trang,"990 đường 23 tháng 10, thôn Phú Thạnh, X. Vĩnh Thạnh",12.257333,109.14951
Khánh Hòa,TP.Nha Trang,"131 Lê Hồng Phong, P.Phước Hòa",12.2348148,109.181335
Khánh Hòa,H. Diên Khánh,"Số 93 đường Lý Tự Trọng, khóm Đông Môn, TT. Diên Khánh",12.256109,109.09839
Khánh Hòa,TP. Nha Trang,"1200 Lê Hồng Phong, P. Phước Long",12.214518,109.19177
Khánh Hòa,TP. Nha Trang,"223 đường 2/4, P. Vạn Thắng",12.258812,109.18893
Khánh Hòa,TP.Cam Ranh,"Số 1 đại lộ Hùng Vương, Tổ DP Lợi Hòa, P.Cam Lợi",11.9173424,109.146198
Khánh Hòa,TP. Cam Ranh,"923 Hùng Vương, P. Cam Phúc Bắc",11.967287,109.19213
Khánh Hòa,TP.Nha Trang,"Số 01 Hòn Chồng, P.Vĩnh Phước",12.274487,109.19831
Khánh Hòa,H. Vạn Ninh,"Khóm 5, TT. Vạn Giã",12.698661,109.2263
Hà Tĩnh,Tp. Hà Tĩnh,"Số 50 đường Hà Huy Tập, P. Hà Huy Tập",18.337406,105.89638
Hà Tĩnh,Tp. Hà Tĩnh,"Số 76 đường Trần Phú, P. Trần Phú",18.342174,105.89243
Hà Tĩnh,TP.Hà Tĩnh,"160 Hà Huy Tập, P.Hà Huy Tập",18.3336032,105.8999097
Hải Phòng,H. Kiến Thuỵ,"Điện máy Xanh Số 19 Cẩm Xuân, TT. Núi Đối",20.74991,106.66839
Hải Phòng,Quận Kiến An,"Điện máy Xanh Số nhà 703 -705 - 707 - 709 đường Trường Chinh, Tổ dân phố Trường Chinh 2, Phường Quán Trữ",20.824068,106.652566
Hải Phòng,Thành phố Hải Phòng,"Điện máy Xanh Thôn 6, Xã Tú Sơn, Huyện Kiến Thuỵ",20.713835,106.729291
Hải Phòng,Tp Hải Phòng (Ngã 3 Quán Chủng - Mỹ Đức,"Điện máy Xanh Thôn Tiến Lập, xã Mỹ Đức, huyện An Lão",20.765025,106.602181
Hải Phòng,Huyện An Lão,"Điện máy Xanh Khu Văn Tràng I, Thị Trấn Trường Sơn",20.822937,106.556268
Hải Phòng,Thành phố Hải Phòng,"Điện máy Xanh Số 381 Đường Phạm Văn Đồng, Phường Hải Thành, Quận Dương Kinh",20.791221,106.714537
Hải Phòng,Thành phố Hải Phòng,"Điện máy Xanh Thôn An Lãng, Xã An Hòa, Huyện Vĩnh Bảo",20.689817,106.48022
Hải Phòng,huyện An Dương,"Điện máy Xanh Thôn Kinh Giao, xã Tân Tiến",20.864145,106.613799
Hải Phòng,huyện Thủy Nguyên,"Điện máy Xanh Tờ bản đồ số 03, thôn 6, xã Phả Lễ",20.9109249,106.7435217
Hải Phòng,Q.Đồ Sơn,"Điện máy Xanh Số 220 Lý Thánh Tông, P.Vạn Sơn",20.71528,106.7831
Hải Phòng,huyện An Dương,"Điện máy Xanh Đường Tôn Đức Thắng, Xã An Đồng",20.852889,106.65222
Hải Dương,huyện Cẩm Giàng,"Điện máy Xanh Thôn Bình Long, xã Lương Điền",20.956324,106.166734
Hải Dương,huyện Nam Sách,Điện máy Xanh Xã Thanh Quang,20.986889,106.335192
Hồ Chí Minh,Huyện Nhà Bè,"Điện máy Xanh 12/2A Ấp 3, xã Phú Xuân",10.678097,106.75375
Hồ Chí Minh,Huyện Củ Chi,Điện máy Xanh Số 271 Quốc Lộ 22,10.938917,106.54094
Hồ Chí Minh,Q. Bình Tân,"Điện máy Xanh Số 1826A Tỉnh Lộ 10, khu phố 1, P. Tân Tạo",10.762065,106.5699
Hồ Chí Minh,Quận Tân Phú,"Điện máy Xanh 452A-452D Lũy Bán Bích, Phường Hòa Thạnh",10.778649,106.63532
Hồ Chí Minh,H. Bình Chánh,"Điện máy Xanh D10/292C và D10/292D Ấp 4, X. Phong Phú",10.691614,106.65255
Hồ Chí Minh,Thành phố Thủ Đức,"Điện máy Xanh 794 Phạm Văn Đồng, Phường Hiệp Bình Chánh",10.831556,106.725889
Hồ Chí Minh,huyện Hóc Môn,"Điện máy Xanh Số 12 - 12B Đặng Thúc Vịnh, xã Đông Thạnh",10.906028,106.639722
Hồ Chí Minh,Huyện Bình Chánh,"Điện máy Xanh C4/21, Khu Phố 3, Thị Trấn Tân Túc",10.674211,106.58051
Hồ Chí Minh,Thành phố Thủ Đức,"Điện máy Xanh 137 Quốc Lộ 13, Phường Hiệp Bình Chánh",10.831354,106.71396
Hồ Chí Minh,Q. Gò Vấp,"Điện máy Xanh Số 152 (số cũ 33) Quang Trung, P. 10",10.828241,106.67502
Hưng Yên,H.Yên Mỹ,"Thôn Liêu Thượng, xã Liêu Xá",20.920298,106.05827
Hưng Yên,Tỉnh Hưng Yên,"Khu phố Văn Giang, Thị Trấn Văn Giang, Huyện Văn Giang",20.9461182,105.9400611
Hưng Yên,Tỉnh Hưng Yên,"Số 16 - 18 đường Nguyễn Bình, Phường Bần Yên Nhân, Thị xã Mỹ Hào",20.93863,106.05975
Hưng Yên,Huyện Văn Lâm,"74 khu phố mới , TT Như Quỳnh",20.986739,105.97732
Hưng Yên,H. Khoái Châu,"Ngã tư Dân Tiến, xã Dân Tiến",20.84206,106.00855
Hưng Yên,H. Văn Lâm,"Chợ đường cái, xã Trưng Trắc",20.958287,105.99892
Hưng Yên,huyện Yên Mỹ,"Số 262, thị trấn Yên Mỹ",20.883526,106.03453
Khánh Hòa,TP. Nha Trang,"58 đường 23 tháng 10, P. Phương Sơn",12.251863,109.17639
Khánh Hòa,TX. Ninh Hòa,"Tổ dân phố Phú Thọ 2, P. Ninh Diêm",12.538448,109.2165
Khánh Hòa,TX.Ninh Hòa,"Số 324-326 Trần Quý Cáp, Tổ dân phố 7, P.Ninh Hiệp",12.493371,109.12753
Khánh Hòa,H.Diên Khánh,"Số 02 Lạc Long Quân, Thị Trấn Diên Khánh",12.2572206,109.1066086
Hồ Chí Minh,Q. Bình Tân,"Điện máy Xanh Số 740 Tân Kỳ Tân Quý, P. Bình Hưng Hòa",10.790904,106.60358
Hồ Chí Minh,Thành phố Thủ Đức,"Điện máy Xanh 184 Võ Văn Ngân, Phường Bình Thọ",10.850691,106.76267
Hồ Chí Minh,H. Củ Chi,"Điện máy Xanh Số 42A Tỉnh Lộ 8, X. Tân Thạnh Tây",10.984021,106.57477
Hồ Chí Minh,Huyện Bình Chánh,"Điện máy Xanh G16/41 Trần Đại Nghĩa, Ấp 7, Xã Lê Minh Xuân",10.739261,106.549552
Hồ Chí Minh,Quận Bình Tân,"Điện máy Xanh 1255 Tỉnh Lộ 10, Phường Tân Tạo",10.756312,106.59017
Hồ Chí Minh,Huyện Bình Chánh,"Điện máy Xanh A4/4 Trần Văn Giàu, Ấp 1, Xã Lê Minh Xuân",10.787944,106.516194
Hồ Chí Minh,Huyện Củ Chi,"Điện máy Xanh 110 - 110B Hà Duy Phiên, Xã Bình Mỹ",10.933822,106.646145
Hồ Chí Minh,Quận 12,"Điện máy Xanh Số 29A Nguyễn Văn Quá, P. Đông Hưng Thuận",10.847982,106.63532
Hồ Chí Minh,H. Hóc Môn,"Điện máy Xanh Số 70/2, ấp Hưng Lân, X. Bà Điểm",10.856071,106.60644
Hồ Chí Minh,Q.8,"Điện máy Xanh 158 An Dương Vương, P.16",10.725418,106.62012
Hồ Chí Minh,Quận 12,"Điện máy Xanh 55-57-59 Hà Huy Giáp, Phường Thạnh Lộc",10.854031,106.679185
Hồ Chí Minh,H. Củ Chi,"Điện máy Xanh Số 209-211 Tỉnh Lộ 8, KP.03, TT. Củ Chi",10.976583,106.50061
Hồ Chí Minh,quận 7,"Điện máy Xanh 1521 đường Huỳnh Tấn Phát, phường Phú Mỹ",10.712235,106.737156
Hồ Chí Minh,Q.Bình Tân,"Điện máy Xanh 722 Tỉnh Lộ 10, Khu phố 18, P.Bình Trị Đông",10.758258,106.61177
Hồ Chí Minh,Quận 12,"Điện máy Xanh 343-345 Lê Văn Khương, P. Hiệp Thành",10.877173,106.6489
Hồ Chí Minh,Quận 12,"Điện máy Xanh 35 Vườn Lài. Khu phố 4, Phường An Phú Đông",10.858576,106.692415
Hồ Chí Minh,Q.12,"Điện máy Xanh Số 597 Hà Huy Giáp, KP.03, P. Thạnh Xuân",10.881189,106.67917
Hồ Chí Minh,Q. 12,"Điện máy Xanh 102 -104 -106 Trường Chinh,P. Tân Hưng Thuận ",10.827917,106.62516
Hồ Chí Minh,Quận 12,"Điện máy Xanh 343-345 Lê Văn Khương, P. Hiệp Thành",10.877173,106.6489
Hồ Chí Minh,Huyện Bình Chánh,"Điện máy Xanh Ấp 1, Xã Qui Đức",10.646417,106.656333
Hồ Chí Minh,quận Gò Vấp,"Điện máy Xanh 2A Nguyễn Oanh, phường7",10.830063,106.678293
Hồ Chí Minh,Huyện Nhà Bè ,"Điện máy Xanh 506 - 508 Nguyễn Văn Tạo, Ấp 1, Xã Long Thới",10.652199,106.72964
Hồ Chí Minh,Phường 11,Điện máy Xanh 2/1B Quang Trung,10.835075,106.66445
Hồ Chí Minh,Huyện Củ Chi,"Điện máy Xanh 1484 Tỉnh Lộ 8, Ấp 12, Xã Tân Thạnh Đông",10.982556,106.591222
Hồ Chí Minh,Huyện Củ Chi,"Điện máy Xanh 801-801A Quốc Lộ 22, ấp Chợ, xã Phước Thạnh",11.004915,106.42793
Hồ Chí Minh,Huyện Củ Chi,"Điện máy Xanh 874 – 874 A, Quốc Lộ 22, Thị trấn Củ Chi",10.970711,106.48268
Hồ Chí Minh,Thành phố Thủ Đức,"Điện máy Xanh Số 266 Long Phước, phường Long Phước",10.8118053,106.8595415
Hồ Chí Minh,H. Bình Chánh,"Điện máy Xanh D12/23B Đinh Đức Thiện, ấp 4, X. Bình Chánh",10.661881,106.57562
Hồ Chí Minh,Q. Gò Vấp,"Điện máy Xanh 278 Phạm Văn Chiêu, P.9",10.849386,106.650424
Hồ Chí Minh,huyện Củ Chi,"Điện máy Xanh Số 106, đường Tỉnh Lộ 15, xã Phú Hoà Đông",11.022502,106.5642188
Hồ Chí Minh,Huyện Bình Chánh,"Điện máy Xanh C5/13B Phạm Hùng , Ấp 4, Xã Bình Hưng ",10.735361,106.67238
Hồ Chí Minh,Huyện Hóc Môn,"Điện máy Xanh 36/3D Phan Văn Đối, Ấp Tiền Lân, Xã Bà Điểm",10.837917,106.59955
Hồ Chí Minh,Thành phố Thủ Đức,"Điện máy Xanh 43 Quốc Lộ 1K, Khu phố 2, Phường Linh Xuân",10.875806,106.76597
Hồ Chí Minh,Thành phố Thủ Đức,"Điện máy Xanh 178 Đường Lã Xuân Oai, Phường Tăng Nhơn Phú A",10.839937,106.792997
Hồ Chí Minh,H.Hóc Môn,"Điện máy Xanh 4/25, ấp Nam Thới, xã Thới Tam Thôn",10.8880966,106.6005564
Hồ Chí Minh,Quận Bình Thạnh,"Điện máy Xanh 224/1A Xô Viết Nghệ Tĩnh, Phường 26",10.81001,106.71205
Hồ Chí Minh,Huyện Củ Chi,"Điện máy Xanh 1849 Tỉnh Lộ 8, Xã Bình Mỹ",10.972965,106.635644
Hồ Chí Minh,Quận 8,"Điện máy Xanh 3223 Phạm Thế Hiển, Phường 7",10.712139,106.628111
Hồ Chí Minh,Quận Bình Thạnh,"Điện máy Xanh 224/1A Xô Viết Nghệ Tĩnh, Phường 26",10.81001,106.71205
Hồ Chí Minh,Q. Gò Vấp,"Điện máy Xanh 1046 Quang Trung, P. 08",10.840704,106.64569
Hồ Chí Minh,Gò Vấp,"Điện máy Xanh Số 223-225 Phan Huy Ích, P.14",10.834651,106.63488
Hồ Chí Minh,Q. Bình Tân,"Điện máy Xanh 767A Đường Hương Lộ 2, Khu phố 2, P. Bình Trị Đông A",10.765999,106.605563
Hồ Chí Minh,TP. HCM (Đối diện công viên Phú Lâm,"Điện máy Xanh Số 227 Kinh Dương Vương, P. 12, Q. 6",10.745785,106.62436
Hồ Chí Minh,Thành phố Thủ Đức,"Điện máy Xanh 632 - 634 Quốc Lộ 13, khu phố 4, Phường Hiệp Bình Phước",10.852056,106.72058
Hồ Chí Minh,huyện Hóc Môn,"Điện máy Xanh 109 - 109A Lê Văn Khương, xã Đông Thạnh",10.90496,106.6439
Hồ Chí Minh,Thành phố Thủ Đức,"Điện máy Xanh 289A đường Liên Phường, Khu phố 6, Phường Phước Long B",10.804556,106.791917
Hồ Chí Minh,Q.06,"Điện máy Xanh 60Tân Hòa Đông, P.14",10.756551,106.63241
Hồ Chí Minh,Quận 7,"Điện máy Xanh 6G-7G Lâm Văn Bền, Phường Tân Thuận Tây",10.750667,106.716
Hồ Chí Minh,Quận 03 ,"Điện máy Xanh 542 Cách Mạng Tháng 8, Phường 11",10.785816,106.66691
Hồ Chí Minh,Q. 5,"Điện máy Xanh 558 Trần Hưng Đạo, P. 2",10.7552436,106.6807276
Hồ Chí Minh,Quận Tân Bình,"Điện máy Xanh 626 Âu Cơ, Phường 10",10.782822,106.64274
Hồ Chí Minh,Thành phố Hồ Chí Minh,"Điện máy Xanh C1/3C - C1/3E - C1/3F - C1/3G Võ Văn Vân, Ấp 3, Xã Vĩnh Lộc B, Huyện Bình Chánh",10.79481,106.576671
Hồ Chí Minh,H. Cần Giờ,"Điện máy Xanh 83 Duyên Hải, KP. Hưng Thạnh, TT. Cần Thạnh",10.415283,106.9727
Hồ Chí Minh,Quận Tân Bình,"Điện máy Xanh 169 Cộng Hoà, Phường 12",10.801731,106.647625
Hồ Chí Minh,Quận Tân Phú,"Điện máy Xanh 06 Nguyễn Sơn, Phường Phú Thọ Hoà",10.780913,106.63211
Hồ Chí Minh,Q.12,"Điện máy Xanh 787 Quốc Lộ 1A, P.Thạnh Xuân",10.861508,106.67115
Hồ Chí Minh,Thành phố Hồ Chí Minh,"Điện máy Xanh 215 Dương Thị Mười, Khu phố 4, Phường Tân Chánh Hiệp, Quận 12",10.863543,106.633237
Hồ Chí Minh,Q. Bình Tân,"Điện máy Xanh 442-444 Hồ Học Lãm, P. An Lạc",10.727332,106.60766
Hồ Chí Minh,Q. Bình Tân,"Điện máy Xanh 54-56 đường số 7, P. Bình Trị Đông B",10.75187,106.6162
Hồ Chí Minh,Quận 08,"Điện máy Xanh 1085 đường Phạm Thế Hiển, phường 05",10.742591,106.666127
Hồ Chí Minh,Huyện Bình Chánh,"Điện máy Xanh B15/7A Quốc lộ 50, Ấp 2, Xã Bình Hưng",10.717059,106.64884
Hồ Chí Minh,Huyện Bình Chánh,"Điện máy Xanh B5/19N Trần Đại Nghĩa, Ấp 2, Xã Tân Kiên",10.724785,106.59376
Hồ Chí Minh,Huyện Củ Chi,"Điện máy Xanh Số 1385 Tỉnh Lộ 7, ấp Chợ Cũ, Xã An Nhơn Tây",11.087,106.512361
Hồ Chí Minh,Q. 7,"Điện máy Xanh Số 428 Nguyễn Thị Thập, P. Tân Quy",10.739323,106.70878
Hồ Chí Minh,quận Bình Tân,"Điện máy Xanh Số 599 đường Hương Lộ 2, phường Bình Trị Đông",10.769889,106.61375
Hồ Chí Minh,Thành phố Thủ Đức,"Điện máy Xanh 1363A - 1363B Tỉnh Lộ 43, Phường Bình Chiểu",10.895485,106.7188
Hồ Chí Minh,Thành phố Thủ Đức,"Điện máy Xanh 832-834-836 Tỉnh Lộ 43, Phường Bình Chiểu",10.877889,106.73186
Hồ Chí Minh,Thành phố Thủ Đức,"Điện máy Xanh 71 Lê Văn Việt, Phường Hiệp Phú",10.84762,106.77614
Hồ Chí Minh,Q.7,"Điện máy Xanh 677 Huỳnh Tấn Phát, P. Phú Thuận",10.737238,106.73063
Hồ Chí Minh,Quận 6,"Điện máy Xanh 416 Hậu Giang, P. 12",10.749086,106.63856
Hồ Chí Minh,quận Bình Thạnh,"Điện máy Xanh Số 230 Bạch Đằng, phường 24",10.80345,106.704866
Hồ Chí Minh,Thành phố Thủ Đức,"Điện máy Xanh 542 Tỉnh lộ 43, Khu phố 5, Phường Tam Phú",10.865806,106.741399
Hồ Chí Minh,Q.Tân Phú,"Điện máy Xanh 451 Lê Trọng Tấn, P.Sơn Kỳ",10.8091053,106.6151261
Hồ Chí Minh,Thành phố Thủ Đức,"Điện máy Xanh 250 Nguyễn Văn Tăng, Phường Long Thạnh Mỹ",10.841833,106.82136
Hồ Chí Minh,Quận 12,"Điện máy Xanh 102 Lê Văn Khương, Khu Phố 1, Phường Thới An",10.865142,106.64978
Hồ Chí Minh,Huyện Hóc Môn,"Điện máy Xanh 22/5 Phan Văn Hớn, ấp 7, xã Xuân Thới Thượng",10.848313,106.58988
Hồ Chí Minh,Quận 12 ,"Điện máy Xanh 322- 324 Phan Văn Hớn, Phường Tân Thới Nhất",10.834249,106.60734
Hồ Chí Minh,quận Gò Vấp,"Điện máy Xanh 880-882 Lê Đức Thọ, phường 15",10.848883,106.66654
Hồ Chí Minh,quận Gò Vấp,"Điện máy Xanh Số 330, đường Lê Văn Thọ, phường 11",10.84834,106.656786
Hồ Chí Minh,Q. 10,"Điện máy Xanh Số 03 đường 3/2, P. 11",10.777501,106.68125
Hồ Chí Minh,Thành phố Thủ Đức,"Điện máy Xanh 633-633A-635 Lê Văn Việt, Ấp Cầu Xây, Phường Tân Phú",10.849389,106.8108
Hồ Chí Minh,Thành phố Thủ Đức,"Điện máy Xanh 584 Kha Vạn Cân, Phường Linh Đông",10.840847,106.74425
Hồ Chí Minh,H. Bình Chánh,"Điện máy Xanh A1/9 QL 50, Ấp 2, X. Bình Hưng",10.731638,106.65586
Hồ Chí Minh,Phường Sơn Kỳ,Điện máy Xanh 153 Lê Trọng Tấn,10.806085,106.627392
Hồ Chí Minh,Thành phố Thủ Đức,"Điện máy Xanh 502 Đỗ Xuân Hợp, Phường Phước Bình",10.821395,106.77211
Hồ Chí Minh,Quận Tân Phú TP,"Điện máy Xanh 46 Đường CN1 , Phường Sơn Kỳ",10.80509,106.60895
Hồ Chí Minh,Thành phố Thủ Đức,"Điện máy Xanh 21 Trần Não, Khu phố 4, Phường An Khánh",10.797175,106.73153
Hồ Chí Minh,Quận 11,"Điện máy Xanh 79 Hòa Bình, Phường 03",10.766851,106.64166
Hồ Chí Minh,Quận 6,"Điện máy Xanh 236 Phạm Phú Thứ, phường 4",10.745667,106.643365
Hồ Chí Minh,Huyện Bình Chánh,"Điện máy Xanh E9/19- E9/19C,Nguyễn Hữu Trí , Khu Phố 5,Thị Trấn Tân Túc ",10.696682,106.59662
Hồ Chí Minh,Q.Tân Bình,"Điện máy Xanh 650 Trường Chinh, P.15",10.8049532,106.6354787
Hồ Chí Minh,Huyện Hóc Môn,"Điện máy Xanh 60/9 - 60/10 Nguyễn Ảnh Thủ, Ấp Trung Lân, Xã Bà Điểm",10.845985,106.600285
Hồ Chí Minh,huyện Củ Chi,Điện máy Xanh Xã Tân Thông Hội,10.96445,106.50437
Hồ Chí Minh,Quận Tân Phú,"Điện máy Xanh 265 Hòa Bình, Phường Hiệp Tân",10.773175,106.62183
Hồ Chí Minh,Quận Gò Vấp,"Điện máy Xanh 1468 - 1468A Lê Đức Thọ, Phường 13",10.858431,106.652558
Hồ Chí Minh,Thành phố Hồ Chí Minh,"Điện máy Xanh 22/3C Đỗ Văn Dậy, Ấp Tân Thới 1, Xã Tân Hiệp, Huyện Hóc Môn",10.893667,106.597911
Hồ Chí Minh,H. Củ Chi,"Điện máy Xanh 417 Tỉnh Lộ 15, X. Tân Thạnh Đông",10.959002,106.59586
Hồ Chí Minh,H. Củ Chi,"Điện máy Xanh 417 Tỉnh Lộ 15, X. Tân Thạnh Đông",10.959002,106.59586
Hồ Chí Minh,huyện Củ Chi,"Điện máy Xanh Số 457 - 459 đường Tỉnh Lộ 7, xã Trung Lập Thượng",11.0475081,106.4551168
Hồ Chí Minh,Quận 1,"Điện máy Xanh Số 130 Trần Quang Khải, P. Tân Định",10.79219,106.691739
Hồ Chí Minh,Q. Gò Vấp,"Điện máy Xanh 362A Nguyễn Văn Nghi (Địa chỉ cũ: 199 Nguyễn Thái Sơn, kế bên PNJ), P.7",10.824477,106.68653
Hồ Chí Minh,Q.Bình Tân,"Điện máy Xanh 953 Tỉnh Lộ 10, Khu Phố 8, P. Tân Tạo",10.754576,106.60429
Hồ Chí Minh,Quận Bình Tân,"Điện máy Xanh 106-106A-106B-106C Nguyễn Thị Tú, Khu phố 1, Phường Bình Hưng Hòa B",10.816446,106.60015
Hồ Chí Minh,Q. Bình Tân,"Điện máy Xanh 314 Hồ Học Lãm, P. An Lạc",10.722848,106.61073
Hồ Chí Minh,H. Bình Chánh,"Điện máy Xanh D24/46, Ấp 4, X. Hưng Long ",10.65904,106.6067
Hồ Chí Minh,Q. Bình Tân,"Điện máy Xanh 18 Tây Lân, Kp. 7, P. Bình Trị Đông A",10.770627,106.59073
Hồ Chí Minh,Quận Bình Thạnh,"Điện máy Xanh 237 Nơ Trang Long, Phường 11",10.817292,106.697722
Hồ Chí Minh,Q. Bình Tân,"Điện máy Xanh 18 Tây Lân, Kp. 7, P. Bình Trị Đông A",10.770627,106.59073
Hồ Chí Minh,Thành phố Thủ Đức,"Điện máy Xanh 1241 Nguyễn Duy Trinh, ấp Phước Lai, Phường Long Trường",10.803694,106.8143
Hồ Chí Minh,Q. 7,"853 Huỳnh Tấn Phát, P. Phú Thuận",10.731998,106.73175
Hồ Chí Minh,Q. 05,"708 Nguyễn Trãi, P. 11",10.7530499,106.6613393
Hồ Chí Minh,Quận 10,"228 - 228A - 230 Đường 3/2, Phường 12",10.773899,106.677764
Hồ Chí Minh,Quận 1,"145 Nguyễn Thị Minh Khai, Phạm Ngũ Lão",10.771096,106.68728
Hồ Chí Minh,Q.4,163-165 Khánh Hội,10.756775,106.700584
Hồ Chí Minh,Q.Tân Bình,"310 Trường Chinh, P.13",10.7981188,106.6437507
Hồ Chí Minh,Phường Tân Thuận Đông ,509 Huỳnh Tấn Phát ,10.744495,106.72954
Hồ Chí Minh,Quận 7,"158 Phạm Hữu Lầu, Phường Phú Mỹ",10.7047169,106.7312094
Hồ Chí Minh,Quận 7,"158 Phạm Hữu Lầu, Phường Phú Mỹ",10.7047169,106.7312094
Hồ Chí Minh,Tp HCM,"41 - 43 Trường Chinh, P. Tân Thới Nhất, Q12",10.827082,106.62512
Hồ Chí Minh,Quận 12,"Số 108 Lê Văn Khương , Khu Phố 1, Phường Thới An ",10.865115,106.649742
Hồ Chí Minh,Q.08,"288/1-288/3 Dương Bá Trạc, P.02",10.744733,106.68905
Hồ Chí Minh,Q. 08,"733 Hưng Phú, P. 09 ",10.745905,106.6673
Hồ Chí Minh,TP. HCM (ngay ngã 4 Hương Lộ 2 - Mã Lò,"736 Hương Lộ 2, P. Bình Trị Đông A, Q. Bình Tân",10.765607,106.60403
Hồ Chí Minh,Quận Bình Tân,"1024 Hương Lộ 2, KP 6, P.Bình Trị Đông A",10.769941,106.59183
Hồ Chí Minh,huyện Củ Chi,"Số 126/5E, khu phố 5, thị trấn Củ Chi",10.970401,106.48259
Hồ Chí Minh,Q. Gò Vấp,"1A Nguyễn Kiệm, P.3",10.8144114,106.6785979
Hồ Chí Minh,Q. Thủ Đức,"628-628A Kha Vạn Cân, Khu phố 8, P. Linh Đông",10.841624,106.74691
Hồ Chí Minh,Q. Thủ Đức,"628-628A Kha Vạn Cân, Khu phố 8, P. Linh Đông",10.841624,106.74691
Hồ Chí Minh,huyện Củ Chi,"1014 Tỉnh lộ 8, ấp 12, xã Tân Thạnh Đông",10.98325,106.57652
Hồ Chí Minh,Q.11,"482 Hồng Bàng, P.16",10.7537996,106.6479027
Hồ Chí Minh,Q. Bình Tân,"1302-1304-1306 Tỉnh Lộ 10, KP.5, P.Tân Tạo",10.756292,106.59267
Hồ Chí Minh,H.Bình Chánh,"Ấp 1, Nguyễn Cửu Phú, Xã Tân Kiên",10.729458,106.581182
Hồ Chí Minh,Quận Thủ Đức,"129-131 Quốc Lộ 1K, Khu phố 5, Phường Linh Xuân",10.881194,106.7684
Hồ Chí Minh,Q. Bình Tân ,"269 Tân Hòa Đông, P. Bình Trị Đông",10.760119,106.62455
Hồ Chí Minh,Huyện Củ Chi ,"01 Lê Minh Nhựt, Ấp Tiền, Xã Tân Thông Hội",10.947375,106.52367
Hồ Chí Minh,Q.Gò Vấp,"692, Quang Trung, P.8",10.83661,106.65814
Hồ Chí Minh,Q.9,"159 –161 Lê Văn Việt, P.Hiệp Phú",10.8458086,106.7791378
Hồ Chí Minh,Quận 11,"469 Lê Đại Hành , Phường 11",10.768722,106.652
Hồ Chí Minh,Q. Bình Thạnh,"26 Phan Đăng Lưu, P.6",10.8035528,106.6893891
Hồ Chí Minh,Quận 2,"198 Trần Não, Ấp Bình Khánh 2, P. Bình An",10.790221,106.72995
Hồ Chí Minh,H. Hóc Môn,"4/19 Ấp Nam Thới, X. Thới Tam Thôn",10.889495,106.595529
Hồ Chí Minh,Q.05,"532-534 Trần Hưng Đạo, P.02",10.755458,106.6813
Hồ Chí Minh,Q.12,"30/1 Hà Huy Giáp, Khu Phố 2, P.Thạnh Lộc",10.892777,106.68764
Hồ Chí Minh,Q.Tân Phú,"104 Hòa Bình, P.Phú Trung",10.769685,106.63567
Hồ Chí Minh,Q. Tân Bình,"670 Âu Cơ, P.10",10.785939,106.641663
Hồ Chí Minh,H.Bình Chánh,"A11/1 Ấp 2, Xã Bình Hưng",10.726794,106.65571
Hồ Chí Minh,H. Củ Chi,"49 Tỉnh Lộ 8, Khu phố 1, TT. Củ Chi",10.970597,106.48999
Hồ Chí Minh,H.Bình Chánh,"A11/1 Ấp 2, Xã Bình Hưng",10.726794,106.65571
Hồ Chí Minh,Q. Tân Phú,"414-416 Bình Long, P. Tân Quý",10.788347,106.61749
Hồ Chí Minh,Q. Bình Thạnh,134 Đinh Bộ Lĩnh P. 26,10.809152,106.70934
Hồ Chí Minh,quận 6,"704 Hậu Giang, phường 12",10.747679,106.63301
Hồ Chí Minh,Q.Phú Nhuận,"153B Phan Đăng Lưu, P.02",10.8018,106.68317
Hồ Chí Minh,H. Bình Chánh,"D1/9/40 - D2/40A ấp 4, xã Hưng Long",10.658602,106.60766
Hồ Chí Minh,H. Bình Chánh,"A4/15 Ấp 1, xã Lê Minh Xuân",10.78895,106.5154
Hồ Chí Minh,Q. Bình Thạnh,"Số 820 Xô Viết Nghệ Tĩnh, P.25",10.812564,106.71571
Hồ Chí Minh,Quận 10,"678-680 Đường 3/2, Phường 14",10.764254,106.66044
Hồ Chí Minh,H.Hóc Môn,"221 Đặng Thúc Vịnh, Ấp 7 , X. Đông Thạnh",10.905925,106.63945
Hồ Chí Minh,quận 6,"704 Hậu Giang, phường 12",10.747679,106.63301
Hồ Chí Minh,Q. Tân Phú,"414-416 Bình Long, P. Tân Quý",10.788347,106.61749
Hồ Chí Minh,Q.Phú Nhuận,"153B Phan Đăng Lưu, P.02",10.8018,106.68317
Hồ Chí Minh,Q. 06,"Số A15 Cư Xá Phú Lâm, đường Bà Hom, P. 13",10.754919,106.62946
Hồ Chí Minh,Q.12,"30/1 Hà Huy Giáp, Khu Phố 2, P.Thạnh Lộc",10.892777,106.68764
Hồ Chí Minh,quận BÌNH TÂN ,"473 Kinh Dương Vương , phường An Lạc ",10.738247,106.61537
Hồ Chí Minh,Q.Thủ Đức,"349 Quốc Lộ 13, Khu Phố 5, P.Hiệp Bình Phước",10.839445,106.71551
Hồ Chí Minh,Q. Bình Thạnh,"602/1 Điện Biên Phủ , P.22 ",10.799201,106.7178
Hồ Chí Minh,H. Củ Chi,"266 Tỉnh Lộ 15, Ấp 11, Xã Tân Thạnh Đông",10.947188,106.60611
Hồ Chí Minh,Q.Tân Phú,"171 Nguyễn Sơn, P.Phú Thạnh",10.7827,106.6269064
Hồ Chí Minh,H. Bình Chánh,"D1/1 Đinh Đức Thiện, Ấp 4, Xã Tân Quý Tây",10.6565518,106.5838126
Hồ Chí Minh,Q. Tân Phú,"105 Tân Kỳ Tân Quý, P. Tân Sơn Nhì",10.803434,106.63312
Hồ Chí Minh,Huyện Bình Chánh,"D7/23, ấp 4, Nguyễn Thị Tú, Xã Vĩnh Lộc B",10.813562,106.57948
Hồ Chí Minh,Q. Gò Vấp,"Số 9 (số cũ 189) Nguyễn Oanh, P. 10",10.838122,106.67532
Hồ Chí Minh,Q. Thủ Đức,"267D-267E Tô Ngọc Vân, P. Linh Đông",10.85764,106.74924
Hồ Chí Minh,Q.Thủ Đức,"744A Tỉnh Lộ 43, P. Bình Chiểu",10.8722189,106.7331058
Hồ Chí Minh,Q. 4,"179 Tôn Đản, P. 15",10.757834,106.70659
Hồ Chí Minh,Quận 9,"358 Lê Văn Việt, P. Tăng Nhơn Phú B",10.844328,106.78521
Hồ Chí Minh,Q.Thủ Đức,"1208 Kha Vạn Cân, Khu phố 2, P.Linh Trung",10.861176,106.76118
Hồ Chí Minh,Quận 2,"190B Nguyễn Thị Định, P.An Phú",10.790372,106.75404
Hồ Chí Minh,Quận 2,"543 Nguyễn Thị Định, Phường Cát Lái",10.776719,106.76563
Hồ Chí Minh,Q. Tân Phú,"138B Gò Dầu, P. Tân Quý",10.796075,106.62364
Hồ Chí Minh,huyện Nhà Bè,"Số 891 Nguyễn Văn Tạo, ấp 1, xã Hiệp Phước",10.63286,106.735727
Hồ Chí Minh,Q.1,"136 Nguyễn Thái Học, P.Phạm Ngũ Lão",10.769193,106.69471
Hồ Chí Minh,H. Bình Chánh,"E3/6 Nguyễn Hữu Trí, Ấp 5, TT Tân Túc",10.6941063,106.5839742
Hồ Chí Minh,TP. HCM (trên đường Nguyễn Ảnh Thủ,"1/1A Vạn Hạnh, X. Trung Chánh, H. Hóc Môn",10.864475,106.613103
Hồ Chí Minh,Q. 9,"1316-1318 Nguyễn Duy Trinh, P. Long Trường",10.804685,106.81615
Hồ Chí Minh,Q.12,"365 Phan Văn Hớn, P.Tân Thới Nhất",10.8342333,106.6073262
Hồ Chí Minh,Quận Bình Thạnh,"200 Đường D2 , Phường 25",10.807417,106.71639
Hồ Chí Minh,Q. Bình Tân,"739 Lê Trọng Tấn, KP2, P. Bình Hưng Hòa",10.81566,106.60292
Hồ Chí Minh,Q. 12 ,"Số 354 Lê Văn Khương, khu phố 2 , P. Thới An",10.876476,106.64907
Hồ Chí Minh,Q. 10,"Số 458 đường Nguyễn Tri Phương, P. 09",10.767685,106.666972
Hồ Chí Minh,Q. Bình Thạnh,"125 Nguyễn Xí, P. 26",10.80265,106.69667
Hồ Chí Minh,Q. Bình Tân,"Số 361 đường Tên Lửa, P. Bình Trị Đông",10.73711,106.614621
Hồ Chí Minh,H.Bình Chánh,"C5/20 Phạm Hùng, Ấp 4A, Xã Bình Hưng",10.7337115,106.6735527
Hồ Chí Minh,H.Bình Chánh,"B6/192 Ấp 2, xã Phong Phú",10.691109,106.65498
Hồ Chí Minh,Q. Bình Tân,"566 Hương lộ 2, khu phố 6, P. Bình Trị Đông",10.769876,106.61329
Hồ Chí Minh,Q. Tân Phú,"159 Thạch Lam, P. Hiệp Tân",10.777445,106.62864
Hồ Chí Minh,Q. Tân Phú,"239-241 Tân Hương, P. Tân Quý",10.790002,106.62207
Hồ Chí Minh,Q.Bình Tân,"1615 Tỉnh Lộ 10, Khu phố 5, P.Tân Tạo A",10.758381,106.57965
Hồ Chí Minh,Q. Thủ Đức,"168 Hiệp Bình, P. Hiệp Bình Chánh",10.844315,106.7304
Hồ Chí Minh,Q.Bình Tân,"1615 Tỉnh Lộ 10, Khu phố 5, P.Tân Tạo A",10.758381,106.57965
Hồ Chí Minh,Quận 06,"346 Phạm Văn Chí, P.04",10.743818,106.64451
Hồ Chí Minh,Q.11,"281K Lãnh Binh Thăng, P.8",10.763692,106.64922
Hồ Chí Minh,Q.Gò Vấp,"688 Lê Đức Thọ, P.15",10.8463513,106.6708088
Hồ Chí Minh,Q.6,"1077 Hậu Giang, P.11",10.74503,106.62406
Hồ Chí Minh,Quận 2,"374 - 376 Nguyễn Duy Trinh, P. Bình Trưng Đông",10.788391,106.76927
Hồ Chí Minh,Q. 2,"27 Quốc Hương, KP 4, P. Thảo Điền",10.803285,106.7319
Hồ Chí Minh,Q.Bình Tân,"1036 Tân Kỳ -Tân Quý, P. Bình Hưng Hòa",10.7896981,106.5960824
Hồ Chí Minh,Q.Tân Bình,"759 Cách MạngTháng 8, P.6",10.78786,106.662656
Hồ Chí Minh,Q.Tân Bình,"848 Lạc Long Quân,P.8",10.77958,106.650004
Hồ Chí Minh,H. Củ Chi,"Số 1742 Tỉnh lộ 8, xã Hòa Phú",10.979116,106.61618
Hồ Chí Minh,Quận 1,"2Bis Nguyễn Thị Minh Khai, Phường Đa Kao",10.789972,106.70475
Hồ Chí Minh,Huyện Củ Chi ,"135 Quốc lộ 22, Tổ 16, Ấp Giữa, Xã Tân Phú Trung",10.934025,106.55058
Hồ Chí Minh,Q.Tân Phú,"455 Tân Kỳ Tân Quý, P.Tân Quý",10.799443,106.61959
Hồ Chí Minh,Q.Bình Tân,"229 Nguyễn Thị Tú, P.Bình Hưng Hòa B",10.8155706,106.5939957
Hồ Chí Minh,Quận Gò Vấp,"57 Quang Trung, Phường 10",10.827278,106.67725
Hồ Chí Minh,Quận 7,"468 Nguyễn Thị Thập, Phường Tân Quy",10.739442,106.70677
Hồ Chí Minh,H. Cần Giờ,"01CK Đào Cử, TT. Cần Thạnh",10.412176,106.96796
Hồ Chí Minh,Q. 8,"1680 Phạm Thế Hiển, P. 6",10.739514,106.65355
Hồ Chí Minh,Q.1,"128 Trần Quang Khải, P. Tân Định",10.792042,106.69182
Hồ Chí Minh,Q. Gò Vấp,"Số 620-622-624-626-628 Nguyễn Oanh, P. 6",10.849716,106.67856
Hồ Chí Minh,Q.Bình Thạnh,"307B Lê Quang Định, P.07",10.81081,106.69136
Hồ Chí Minh,Quận 11,"1273 Đường 3/2, Phường 6",10.759143,106.65147
Hồ Chí Minh,Q. Tân Bình,"292 Âu Cơ, P. 09",10.7747,106.64834
Hồ Chí Minh,Q.08 ,"651 Phạm Thế Hiển, P.04",10.745278,106.67655
Hồ Chí Minh,Q. Thủ Đức,"838 Quốc Lộ 13, P. Hiệp Bình Phước",10.865018,106.72448
Hồ Chí Minh,Q.Bình Thạnh,"233 Nơ Trang Long, P.11",10.8170407,106.6976953
Hồ Chí Minh,Q.Tân Bình,"359B Lê Văn Sỹ, P.1",10.796641,106.664918
Hồ Chí Minh,Q. 12,"340 Tô Ký, P. Tân Chánh Hiệp",10.863156,106.654748
Hồ Chí Minh,Q. 1,"55A Trần Quang Khải, P. Tân Định",10.780632,106.698907
Hồ Chí Minh,Quận 08,"328-328A Chánh Hưng( Phạm Hùng ) , Phường 5 ",10.738617,106.66982
Hồ Chí Minh,Huyện Bình Chánh,E6/8 Thới Hòa Xã Vĩnh Lộc A,10.82897,106.58336
Hồ Chí Minh,Q. Bình Thạnh,"Số 316B Phan Văn Trị, P.11",10.817349,106.69541
Hồ Chí Minh,Q. Bình Tân,"287 Lê Văn Quới, P. Bình Trị Đông",10.7761866,106.6126585
Hồ Chí Minh,Q. Phú Nhuận,"Số 75-77 Lê Văn Sỹ, P. 13",10.791766,106.67192
Hồ Chí Minh,Q.12,"2044 Quốc Lộ 1A, P.Tân Thới hiệp ",10.856418,106.63958
Hồ Chí Minh,Thành phố Hồ Chí Minh,"12-14 Võ Văn Ngân, Phường Trường Thọ, Thành phố Thủ Đức",10.8510621,106.7561205
Hồ Chí Minh,Q.9,"246 Đỗ Xuân Hợp, P.Phước Long A",10.824586,106.7691064
Hồ Chí Minh,Q.Thủ Đức,"154 Tô Ngọc Vân, P.Linh Tây",10.853694,106.75126
Hồ Chí Minh,Q. Gò Vấp,"Số 154 - 156 Lê Văn Thọ, P. 11",10.841499,106.65725
Hồ Chí Minh,Quận 6,"3 Kinh Dương Vương, Phường 12",10.753478,106.63421
Hồ Chí Minh,Q.7,"311 Huỳnh Tấn Phát, P.Tân Thuận Đông",10.751576,106.72861
Hồ Chí Minh,Q.Tân Bình,"Số 109-111 Bàu Cát, P.14",10.792713,106.64238
Hồ Chí Minh,Quận Tân Bình,"270B Lý Thường Kiệt, Phường 06",10.77839,106.65617
Hồ Chí Minh,Quận 3,"191 Điện Biên Phủ, Phường 06",10.786225,106.69371
Hồ Chí Minh,Q.05,"174 - 176 Hải Thượng Lãn Ông, P.10",10.750717,106.65971
Hồ Chí Minh,Q.12 ,"260-262-264 Nguyễn Ảnh Thủ, Khu phố 2, P.Hiệp Thành",10.877316,106.64115
Hồ Chí Minh,Q.3,182 A Nguyễn Thị Minh Khai,10.7758994,106.6914538
Hồ Chí Minh,Q. Gò Vấp,"259 Phan Huy Ích, P. 14",10.836088,106.63559
Hồ Chí Minh,Q. 12,"55A Nguyễn Ảnh Thủ, P. Trung Mỹ Tây",10.856169,106.60795
Hồ Chí Minh,Q.5,"176 Nguyễn Tri Phương,P.9",10.7597285,106.6689742
Hồ Chí Minh,Q7,"7 - 9 Tân Mỹ - Khu Phố 2, Phường Tân Phú",10.738016,106.71848
Hồ Chí Minh,Q. Gò Vấp,"259 Phan Huy Ích, P. 14",10.836088,106.63559
Hồ Chí Minh,TP. HCM (ngã 3 QL.22 - Lê Thị Hà,"57/3 Quốc Lộ 22, X. Xuân Thới Đông, H. Hóc Môn",10.870146,106.59649
Hồ Chí Minh,Q12,"222 Trường Chinh, P.Tân Hưng Thuận",10.8310878,106.6229743
Hồ Chí Minh,Q.10,"304 Tô Hiến Thành, P.15",10.776607,106.66362
Hồ Chí Minh,H.Bình Chánh,"Số D13/40 Ấp 4, Xã Vĩnh Lộc A",10.832601,106.5703
Hồ Chí Minh,Q.8,"319-321 Liên Tỉnh 5, P.5",10.734257,106.6563249
Hồ Chí Minh,Q. 9,"Số 203 Lã Xuân Oai, KP.04, P. Tăng Nhơn Phú A",10.840001,106.79643
Hồ Chí Minh,H. Củ Chi,"97 Tỉnh lộ 15, X. Phú Hòa Đông",11.02226,106.56392
Hồ Chí Minh,Q.Tân Bình,"330 Cộng Hòa, P.13",10.80215,106.645795
Điện Biên,H. Mường Ảng,"Điện máy Xanh Tổ dân phố 7, TT. Mường Ảng",21.519869,103.22281
Điện Biên,huyện Mường Nhé,Điện máy Xanh Trung tâm huyện Mường Nhé,22.1914839,102.4609651
Điện Biên,Tỉnh Điện Biên (Đối diện ngã 3 Mường Nhé,"Điện máy Xanh Tổ 11 Thị Trấn Mường Chà, Huyện Mường Chà",21.762416,103.09149
Điện Biên,Huyện Tủa Chùa,"Điện máy Xanh Tổ dân phố Đồng Tâm, Thị trấn Tủa Chùa",21.856478,103.341109
Điện Biên,H. Tuần Giáo,"Điện máy Xanh Ngã 3 Tuần Giáo, Khối Tân Thủy, TT. Tuần Giáo",21.588993,103.42144
Điện Biên,huyện Điện Biên,"Điện máy Xanh Địa chỉ đội 24, xã Noong Hẹt",21.317551,103.010638
Điện Biên,TP. Điện Biên Phủ,"Điện máy Xanh Đường Trần Đăng Ninh, tổ dân phố 6, P. Tân Thanh",21.392529,103.01464
Điện Biên,Tỉnh Điện Biên,"Khối Tân Thủy, Thị trấn Tuần Giáo, Huyện Tuần Giáo",21.5899057,103.4219493
Điện Biên,H. Mường Chà,"Tổ dân phố 5, TT. Mường Chà",21.758943,103.09359
Điện Biên,TP.Điện Biên Phủ,"583 Tổ Dân Phố 10, P.Tân Thanh",21.3972589,103.0207086
Điện Biên,Tp.Điện Biên Phủ,"Tổ dân phố 3, P.Mường Thanh",21.379902,103.01586
Hà Nam,H. Bình Lục,"Điện máy Xanh 784 - 786 Trần Hưng Đạo, tiểu khu Bình Thắng, TT. Bình Mỹ",20.490951,106.00545
Hà Nam,huyện Bình Lục,"Điện máy Xanh Thôn An Ninh, xã An Lão",20.415189,106.008221
Hà Nam,Thành Phố Phủ Lý,"Điện máy Xanh Số 222 Đường Lê Hoàn, Phường Hai Bà Trưng",20.540345,105.91241
Hà Nam,H. Lý Nhân,"Điện máy Xanh Số 68 Trần Hưng Đạo, TT. Vĩnh Trụ",20.559343,106.03012
Hà Nam,TP. Phủ Lý,"Điện máy Xanh Khu TM4 - Quốc lộ 1A, P. Thanh Châu",20.532209,105.91411
Hà Nam,Huyện Thanh Liêm,"Điện máy Xanh Thôn Phú Gia, Xã Thanh Nguyên",20.417029,105.918606
Hà Nam,huyện Duy Tiên,Điện máy Xanh Xã Yên Nam,20.6030443,105.9790808
Hà Nam,H. Duy Tiên,"Điện máy Xanh 130-132b Nguyễn Hữu Tiến, TT. Đồng Văn",20.643361,105.92244
Hà Nam,Huyện Duy Tiên,"Điện máy Xanh Phố Phú Hòa,Thị Trấn Hòa Mạc",20.643096,105.99021
Hà Nam,Huyện Lý Nhân,Điện máy Xanh Xã Hòa Hậu,20.474265,106.167283
Hà Nam,xã Thanh Lưu,Điện máy Xanh Xóm Giữa Non,20.4741544,105.9530795
Hà Nam,thị xã Duy Tiên,"Thửa đất số 11, tờ bản đồ PL13, phố Nguyễn Hữu Tiến, thị trấn Đồng Văn, huyện Duy Tiên, tỉnh Hà Nam ( nay là phường Đồng Văn",20.643571,105.924123
Hà Nam,TP. Phủ Lý,"Số 171 Đinh Tiên Hoàng, P. Trần Hưng Đạo",20.531911,105.91761
Hà Nam,Huyện Kim Bảng,"Thôn Quyển Sơn, Xã Thi Sơn",20.571753,105.87292
Hà Nam,TP.Phủ Lý,"Quốc Lộ 1A, P.Hai Bà Trưng",20.537738,105.91248
Hà Nam,huyện Lý Nhân,"Số 115 - 117 Trần Hưng Đạo, thị trấn Vĩnh Trụ",20.559868,106.03166
Đắk Nông,H. Đắk Song,"Điện máy Xanh Thôn 10, xã Nam Bình",12.290176,107.5953
Đắk Nông,Huyện Tuy Đức,"Điện máy Xanh Thôn 3, Xã Đắk Búk So",12.210209,107.462535
Đắk Nông,Huyện Đắk Mil,Điện máy Xanh Xã Đăk R'la,12.450156,107.620396
Đắk Nông,H. Cư Jut,"Điện máy Xanh Số 317 Nguyễn Tất Thành, TT. Ea T'Ling",12.590268,107.89689
Đắk Nông,Huyện Đăk R’Lấp,"Điện máy Xanh Thôn Quảng Thuận, Xã Nghĩa Thắng",11.892022,107.541431
Đắk Nông,H. Đắk R'Lấp,"Điện máy Xanh Quốc Lộ 14, thôn 03, X. Nhân Cơ",11.980968,107.58125
Đắk Nông,H. Đắk Glong,"Điện máy Xanh Quốc lộ 28 , X. Quảng Khê ",11.908471,107.79762
Đắk Nông,H. Krông Nô,"Điện máy Xanh 185 Nguyễn Tất Thành,Tổ 01, TT. Đắk Mâm",12.460907,107.86253
Đắk Nông,Tỉnh Đắk Nông,"Điện máy Xanh Thôn 1, Xã Đắk Ha, Huyện Đắk Glong",11.908356,107.801304
Đắk Nông,huyện Đăk R'Lấp,"Điện máy Xanh Quốc lộ 14, thôn 5, xã Quảng Tín",11.935079,107.44068
Đắk Nông,huyện Cư Jút,Điện máy Xanh Xã Nam Dong,12.658128,107.867111
Đắk Nông,H.Đắk Mil,"Điện máy Xanh 67 Nguyễn Tất Thành, Thị trấn Đắk Mil",12.4499083,107.6219952
Đắk Nông,TX. Gia Nghĩa,"Điện máy Xanh Tổ dân phố 4, đường Tôn Đức Thắng, P. Nghĩa Thành",12.011255,107.68537
Đắk Nông,Huyện Đắk Song,"Điện máy Xanh Thôn 2, Xã Nâm N Jang",12.189914,107.581866
Hà Giang,huyện Bắc Quang,"Điện máy Xanh Thôn An Xuân, xã Đồng Yên",22.197827,104.774768
Hà Giang,huyện Bắc Quang,Điện máy Xanh Xã Tân Quang,22.4925623,104.8748311
Hà Giang,Huyện Quản Bạ,"Điện máy Xanh Thửa số 100,303,304, tờ bản đồ số 23, tổ 3, thị trấn Tam Sơn",23.065028,104.99302
Hà Giang,TP. Hà Giang,"Điện máy Xanh Số 176, đường Nguyễn Trãi, tổ 15, P. Nguyễn Trãi",22.813265,104.98102
Hà Giang,H. Yên Minh,"Điện máy Xanh Tổ 2, TT. Yên Minh",23.119403,105.13737
Hà Giang,huyện Mèo Vạc,"Điện máy Xanh Đường Hạnh Phúc, thị trấn Mèo Vạc",23.16325,105.410731
Hà Giang,huyện Bắc Quang,"Điện máy Xanh Thôn An Tiến, xã Hùng An",22.414438,104.805916
Hà Giang,H.Bắc Quang,"Điện máy Xanh Số 602 Trường Chinh, Tổ 4, TT.Việt Quang",22.411714,104.80886
Hà Giang,H. Hoàng Su Phì,"Điện máy Xanh Tổ dân phố 4, TT. Vinh Quang",22.742964,104.67943
Hà Giang,H. Xín Mần,"Điện máy Xanh Tổ 1, TT. Cốc Pài",22.684079,104.46188
Hà Giang,huyện Bắc Quang,"Điện máy Xanh Tổ dân phố Phố Mới, thị trấn Vĩnh Tuy",22.31922,104.67212
Hà Giang,huyện Vị Xuyên,Điện máy Xanh Thị trấn Nông Trường Việt Lâm,22.62591,104.9576
Hà Giang,huyện Quang Bình,Điện máy Xanh Thị trấn Yên Bình,22.413518,104.578647
Hà Giang,Huyện Đồng Văn,"Điện máy Xanh Xóm Thành Tâm, xã Đồng Văn",23.277016,105.364295
Hà Giang,Thành phố Hà Giang,"Điện máy Xanh Số nhà 187, 189, 191, Đường Nguyễn Thái Học, Phường Trần Phú",22.830936,104.985392
Hà Giang,huyện Bắc Quang,Điện máy Xanh Xã Quang Minh,22.414438,104.805916
Hà Giang,huyện Vị Xuyên,"Điện máy Xanh Số 154, Tổ 4, thị trấn Vị Xuyên",22.668297,104.9831
Hà Giang,TP.Hà Giang,"Số nhà 331 đường Nguyễn Trãi, P.Nguyễn Trãi",22.821293,104.9816
Hà Giang,TP.Hà Giang,"94 Trần Hưng Đạo, P.Trần Phú",22.8306472,104.9876153
Hà Giang,huyện Mèo Vạc,"Tổ 4, thị trấn Mèo Vạc",23.164098,105.41005
Hà Giang,H. Quản Bạ,"Số nhà 64-66, TT. Tam Sơn",23.064776,104.99103
Hà Giang,Tỉnh Hà Giang ( Ngã 3 Quang Bình ),"Tổ 3, Đường Trường Chinh, Thị Trấn Việt Quang, Huyện Bắc Quang",22.41613,104.80717
Hà Giang,H. Đồng Văn,"Số nhà 100, đường 3/2, tổ 2, TT. Đồng Văn",23.277373,105.35911
Gia Lai,H. Phú Thiện,"Điện máy Xanh Quốc Lộ 25, TDP 12, TT. Phú Thiện",13.529306,108.31711
Gia Lai,Tỉnh Gia Lai,"Điện máy Xanh 272 Hùng Vương, Tổ dân phố 2, Thị trấn Đắk Pơ, Huyện Đắk Pơ",13.934529,108.640071
Gia Lai,huyện Ia Pa,"Điện máy Xanh Thôn Marin II, xã Ia Marơn",13.445461,108.443012
Gia Lai,Tp. Pleiku,"Điện máy Xanh 01 Tôn Đức Thắng, P. Yên Thế",14.030759,107.98962
Gia Lai,Tỉnh Gia Lai,"Điện máy Xanh Đường ĐT 763, Tổ Dân Phố 01, Thị Trấn Ia Ly, Huyện Chư Păh",14.205528,107.837389
Gia Lai,TP. Pleiku,"Điện máy Xanh Số 47 Trần Phú, P. Diên Hồng",13.977613,107.99676
Gia Lai,H. Ia Grai,"Điện máy Xanh 321 Hùng Vương, TT. Ia Kha",13.962087,107.8406
Gia Lai,Huyện Chư Prông,Điện máy Xanh Xã Bàu Cạn,13.857516,107.941872
Gia Lai,Tỉnh Gia Lai,"Điện máy Xanh 199 Hùng Vương, Thị Trấn Phú Túc, Huyện Krông Pa",13.202056,108.683722
Gia Lai,Tp. Pleiku,"Điện máy Xanh 279 Nguyễn Tất Thành, Phường Phù Đổng",13.972709,108.015229
Gia Lai,H. Mang Yang,"Điện máy Xanh 207 Trần Hưng Đạo, Tổ 4 , TT. Kon Dơng ",14.043535,108.25997
Gia Lai,huyện Chư Păh,"Điện máy Xanh Tổ dân phố 01, thị trấn Phú Hòa",14.1015215,107.9732543
Gia Lai,TP. Pleiku,"Điện máy Xanh số 56B-58-60A Phan Đình Phùng, tổ 11, phường Tây Sơn",13.984639,108.002703
Gia Lai,H. K'Bang,"Điện máy Xanh Đường Quang Trung, TDP 7, TT. K'Bang",14.137224,108.60356
Gia Lai,H. Chư Prông,"Điện máy Xanh Số 56 Hùng Vương, TT. Chư Prông",13.758416,107.88902
Gia Lai,H. Chư Pưh,"Điện máy Xanh QL14, TT. Nhơn Hòa",13.547023,108.09949
Gia Lai,H. Chư Sê,"Điện máy Xanh 904B Hùng Vương, TT. Chư Sê",13.692559,108.07777
Gia Lai,Thị Xã An Khê,Điện máy Xanh Số 359 Quang Trung,13.954444,108.66386
Gia Lai,Huyện Đức Cơ,"Điện máy Xanh 477 Quang Trung, Thị Trấn Chư Ty",13.799861,107.69697
Gia Lai,huyện Kông Chro,"Điện máy Xanh Đường Nguyễn Huệ, tổ 3, thị trấn Kông Chro",13.777088,108.524573
Gia Lai,TX. Ayunpa,"Điện máy Xanh Số 245 đường Trần Hưng Đạo, P. Đoàn Kết",13.404931,108.44275
Gia Lai,H.Chư Sê,"811 Hùng Vương, TT.Chư Sê",13.694139,108.07747
Gia Lai,TP.Pleiku ,"05 Nguyễn Tất Thành, P.Hoa Lư",13.985216,108.0075359
Gia Lai,Tỉnh Gia Lai,"72-74 Phan Bội Châu, Thị trấn Kbang, Huyện Kbang",14.13876,108.6017
Gia Lai,Tỉnh Gia Lai,"Số 93C Phan Đình Phùng, Phường Yên Đỗ, Thành phố Pleiku",13.981421,107.9965367
Gia Lai,Thị xã An Khê,"621 Quang Trung, Tổ 2, P.Tây Sơn",13.9540075,108.6524141
Gia Lai,TP.Pleiku,"Số 32 Lê Duẩn, P.Trà Bá",13.969983,108.02128
Gia Lai,TP.Pleiku,"412 Trường Chinh, P.Trà Bá",13.953837,108.01379
Gia Lai,H.Đắk Đoa,"475 Nguyễn Huệ, TT.Đắk Đoa",13.993576,108.12116
Gia Lai,huyện Đức Cơ,"Số 281 Đường Quang Trung, Thị Trấn Chư Ty",13.800013,107.69443
Gia Lai,Huyện Mang Yang,"Số 9, Lý Thái Tổ, Tổ Dân Phố 04, Thị Trấn Kon Dơng",14.0431819,108.2547897
Vĩnh Phúc,huyện Lập Thạch,"Điện máy Xanh Thôn Bỉnh Ri, xã Hợp Lý",21.4965678,105.4911699
Vĩnh Phúc,huyện Lập Thạch,"Điện máy Xanh Thôn Vọng Sơn, xã Triều Đề",21.336487,105.462495
Vĩnh Phúc,T. Vĩnh Phúc ( gần vòng tròn 1 Xuân Hòa,"Điện máy Xanh 116 Trường Chinh, P. Đồng Xuân, TX. Phúc Yên",21.276804,105.72901
Vĩnh Phúc,Huyện Tam Đảo,"Điện máy Xanh Thôn Tân Tiến, Xã Đạo Trù",21.496402,105.533082
Vĩnh Phúc,H. Vĩnh Tường,"Điện máy Xanh Thôn 1, X. Đại Đồng",21.270944,105.5085
Vĩnh Phúc,Huyện Tam Dương,"Điện máy Xanh Phố Me, Thị Trấn Hợp Hòa",21.377837,105.541468
Vĩnh Phúc,huyện Yên Lạc,Điện máy Xanh Xã Nguyệt Đức,21.209069,105.61294
Vĩnh Phúc,huyện Tam Đảo,"Điện máy Xanh Thôn Tích Cực, xã Hợp Châu",21.395401,105.618202
Vĩnh Phúc,huyện Lập Thạch ( nay là Huyện Sông Lô ),Điện máy Xanh Xã Tam Sơn (Nay là Thị trấn Tam Sơn),21.417328,105.402019
Vĩnh Phúc,huyện Bình Xuyên,Điện máy Xanh Xã Bá Hiến,21.31508,105.69036
Vĩnh Phúc,TP.Vĩnh Yên,"Điện máy Xanh 512-514 Đường Mê Linh, P.Khai Quang",21.303292,105.62364
Vĩnh Phúc,huyện Tam Dương,Điện máy Xanh Xã Hoàng Đan,21.333725,105.504367
Vĩnh Phúc,huyện Sông Lô,"Điện máy Xanh Thôn Phú Cường, xã Lãng Công",21.429134,105.420417
Vĩnh Phúc,TP. Vĩnh Yên,"Điện máy Xanh Thôn Đôn Hậu, P. Khai Quang",21.31105,105.61971
Vĩnh Phúc,Huyện Tam Đảo,"Điện máy Xanh Trại Mới, Thị Trấn Đại Đình",21.4484795,105.5719427
Vĩnh Phúc,Huyện Vĩnh Tường,Điện máy Xanh Xã Lũng Hòa,21.279262,105.46624
Vĩnh Phúc,H. Vĩnh Tường,"Điện máy Xanh Tổ dân phố Đội Cấn, TT. Vĩnh Tường",21.211601,105.51682
Vĩnh Phúc,huyện Bình Xuyên,"Điện máy Xanh TDP. Độc Lập, thị trấn Thanh Lãng",21.2458265,105.621262
Vĩnh Phúc,H. Bình Xuyên,"Điện máy Xanh Khu phố 2, TT. Hương Canh",21.272633,105.65011
Vĩnh Phúc,TP. Vĩnh Yên,"Điện máy Xanh 01 Nguyễn Danh Phương, tổ dân phố An Phú, P. Hội Hợp",21.293038,105.55268
Vĩnh Phúc,H. Bình Xuyên,"Điện máy Xanh Khu phố 2, TT. Hương Canh",21.272633,105.65011
Vĩnh Phúc,H.Lập Thạch,"Điện máy Xanh Khu 11, TT.Lập Thạch",21.413925,105.46388
Vĩnh Phúc,Huyện Lập Thạch,"Điện máy Xanh Tổ dân phố Hòa Bình, Thị trấn Hoa Sơn",21.4336774,105.5171147
Vĩnh Phúc,huyện Bình Xuyên,"Điện máy Xanh TDP Cổ Độ, thị trấn Gia Khánh",21.3534486,105.6321826
Vĩnh Phúc,Huyện Yên Lạc,"Điện máy Xanh Khu 3, thôn Đoài, Thị Trấn Yên Lạc",21.235308,105.574955
Vĩnh Phúc,Thị Xã Phúc Yên,"Điện máy Xanh Số 389A, đường Hai Bà Trưng, Khu 5, Xã Tiền Châu",21.230664,105.69456
Vĩnh Phúc,Tỉnh Vĩnh Phúc,"Điện máy Xanh Thôn Bắc Cường, Thị Trấn Thổ Tang, Huyện Vĩnh Tường",21.216079,105.511778
Vĩnh Phúc,TX.Phúc Yên,"Số 136 Trường Chinh, P.Đồng Xuân",21.277999,105.72977
Vĩnh Phúc,Thành phố Vĩnh Yên,"449 Hùng Vương, Phường Đồng Tâm",21.30597,105.57292
Vĩnh Phúc,TX. Phúc Yên,"26 Trần Hưng Đạo, P. Trưng Trắc",21.234845,105.70565
Vĩnh Phúc,H. Yên Lạc,"Khu 3, TT. Yên Lạc",21.234833,105.57459
Vĩnh Phúc,H. Vĩnh Tường,"Phố Mới, TT. Thổ Tang",21.259997,105.48956
Vĩnh Phúc,Huyện Bình Xuyên,"Khu phố 1, Thị Trấn Hương Canh",21.277759,105.647358
Vĩnh Phúc,TP.Vĩnh Yên,"Số 1 Phố Chùa Hà, Xã Định Trung",21.321766,105.59874
Vĩnh Phúc,H. Lập Thạch,TT. Lập Thạch,21.415576,105.461764
Vĩnh Phúc,Thành phố Vĩnh Yên,"Số 1 Mê Linh, Phường Liên Bảo",21.313646,105.597866
Vĩnh Phúc,H.Tam Dương,"Đường Quốc lộ 2C, Phố Me, Thị Trấn Hợp Hòa",21.381407,105.53991
Vĩnh Phúc,H. Vĩnh Tường,"Chợ TT. Vĩnh Tường, TT.Vĩnh Tường",21.215207,105.5143
Vĩnh Phúc,TP. Vĩnh Yên,"Dự án The City Light (Tòa nhà Chung cư), P. Khai Quang",21.3155696,105.6227722
Vĩnh Phúc,Thị xã Phúc Yên,"Số 286, đường Hai Bà Trưng, P.Hùng Vương",21.231189,105.70215
Vĩnh Long,Thành phố Vĩnh Long,"Điện máy Xanh Số 52, khóm 2, Phường 4",10.247781,105.977984
Vĩnh Long,H. Vũng Liêm,"Điện máy Xanh Đường Nam Kỳ Khởi Nghĩa, Tổ 3, Khóm 2, TT. Vũng Liêm",10.095337,106.18579
Vĩnh Long,Huyện Trà Ôn,"Điện máy Xanh Số 1, Khu Phố 3, Thị Trấn Trà Ôn",9.9640711,105.92342
Vĩnh Long,Phường 2,Điện máy Xanh 210 Lê Thái Tổ,10.254677,105.96368
Vĩnh Long,thành phố Vĩnh Long,"Điện máy Xanh Ấp Tân Qưới Đông, xã Trường An",10.262273,105.936247
Vĩnh Long,H. Tam Bình,"Điện máy Xanh Số 492, tổ 1A, ấp 8, X. Mỹ Lộc",10.112538,105.96728
Vĩnh Long,huyện Vũng Liêm,"Điện máy Xanh Ấp Phú Cường, xã Hiếu Thuận",10.035598,106.111418
Vĩnh Long,Huyện Vũng Liêm,"Điện máy Xanh Số 110, Tổ 6, ấp Giồng Ké, Xã Trung Ngãi",10.056927,106.19835
Vĩnh Long,Huyện Trà Ôn,"Điện máy Xanh Số 354, tổ NDTQ 17, ấp Vĩnh Trinh, Xã Vĩnh Xuân",9.951185,106.00577
Vĩnh Long,H. Trà Ôn,"Điện máy Xanh Số 23, tổ 7, ấp Khu Phố, X. Hựu Thành",9.960634,106.08246
Vĩnh Long,Huyện Long Hồ,"Điện máy Xanh Số 197/17, ấp Phước Yên A, Xã Phú Qưới",10.164699,105.928278
Vĩnh Long,TP. Vĩnh Long,"Điện máy Xanh Số 550 Phạm Thái Bường, khóm 5, phường 4",10.232035,105.98675
Vĩnh Long,Huyện Long Hồ,"Điện máy Xanh Số 242/20, khóm 5, Thị Trấn Long Hồ",10.200167,106.004028
Vĩnh Long,thị xã Bình Minh,"Điện máy Xanh Đường Nguyễn Văn Thảnh, tổ 1, khóm 5, phường Thành Phước",10.069735,105.81616
Vĩnh Long,Huyện Long Hồ,"Điện máy Xanh Số 177D/09, tổ 15, ấp Phú Thạnh, Xã Đồng Phú",10.307667,105.998528
Vĩnh Long,huyện Tam Bình,Điện máy Xanh Xã Long Phú,10.078389,105.912222
Vĩnh Long,H. Bình Tân,"Điện máy Xanh Ấp Tân Lộc, X. Tân Lược",10.139993,105.71755
Vĩnh Long,H. Mang Thít,"Điện máy Xanh Số 19-21-23 khóm 01, TT. Cái Nhum",10.174611,106.10907
Vĩnh Long,huyện Bình Tân,Điện máy Xanh Xã Tân Thành,10.101865,105.752457
Vĩnh Long,Huyện Vũng Liêm,"Điện máy Xanh Ấp An Điền 1, Xã Trung Hiếu",10.07465,106.157133
Vĩnh Long,H. Vũng Liêm,"Điện máy Xanh Ấp Nhơn Ngãi, X. Hiếu Phụng",10.083883,106.11923
Vĩnh Long,Huyện Long Hồ,"Điện máy Xanh Ấp An Hiệp, Xã Long An",10.151858,106.025461
Vĩnh Long,H. Tam Bình,"Điện máy Xanh Số 12 Phan Văn Đáng, Khóm 1, TT .Tam Bình",10.047752,105.9993
Vĩnh Long,huyện Vũng Liêm,"Điện máy Xanh Ấp 08, xã Tân An Luông",10.10313,106.081972
Vĩnh Long,T.Vĩnh Long,"Điện máy Xanh QL 54, tổ 50, khóm Đông Thuận, P.Đông Thuận, Tx.Bình Minh",10.045915,105.835835
Vĩnh Long,huyện Mang Thít,"Điện máy Xanh Ấp Chợ, xã Mỹ An",10.240444,106.052806
Vĩnh Long,H. Tam Bình,"Điện máy Xanh Lô 1A, Khu Đô Thị Song Phú, Ấp Phú Ninh, X. Song Phú",10.117474,105.9012
Vĩnh Long,Huyện Bình Tân,"Điện máy Xanh Quốc lộ 54, khóm Tân Thuận, Thị trấn Tân Quới",10.102456,105.753382
Vĩnh Long,H. Mang Thít,"Nguyễn Trãi, Khóm 1, TT. Cái Nhum",10.178293,106.114675
Vĩnh Long,TP. Vĩnh Long,"Số 14D-14E, đường Đinh Tiên Hoàng, khóm 4, P. 8",10.239365,105.95691
Vĩnh Long,TP.Vĩnh Long,"93B đường 2/9, khóm Hưng Đạo Vương, P.1",10.2502606,105.9741372
Vĩnh Long,H. Long Hồ,"Số 197C/17 Quốc lộ 1A, ấp Phước Yên, xã Phú Quới",10.165245,105.92833
Vĩnh Long,Thành Phố Vĩnh Long,"Số 56G, Đường Phạm Hùng, Khóm 5, Phường 9",10.25998,105.94336
Vĩnh Long,H. Tam Bình,"Phan Văn Đáng, Khóm 3, TT. Tam Bình",10.0481894,105.998942
Vĩnh Long,Tỉnh Vĩnh Long,"Thửa đất số 230, tờ bản đồ số 11, Quốc Lộ 54, Khu 7, Thị trấn Trà Ôn, Huyện Trà Ôn",9.969654,105.927587
Vĩnh Long,TX.Bình Minh,"Tổ 21, Khóm 5, P.Cái Vồn",10.07084,105.82275
Vĩnh Long,TP. Vĩnh Long,"Số 71/12 - 71/13 Phó Cơ Điều, khóm 3, P. 03",10.235063,105.96535
Vĩnh Long,TP.Vĩnh Long,"210 Lê Thái Tổ, P.02",10.254538,105.96373
Đồng Tháp,Thành Phố Sa Đéc,"Điện máy Xanh Số 90 Hùng Vương, Phường 1",10.290549,105.76693
Đồng Tháp,huyện Lấp Vò,"Điện máy Xanh Ấp An Thạnh, xã Mỹ An Hưng B",10.405663,105.607699
Đồng Tháp,Huyện Tam Nông,"Điện máy Xanh QL 30, Xã An Long",10.700521,105.38127
Đồng Tháp,Huyện Thanh Bình,"Điện máy Xanh Ấp Tân Phong, Xã Tân Huề",10.613353,105.358219
Đồng Tháp,huyện Lấp Vò,"Điện máy Xanh Ấp An Lợi B, xã Định Yên",10.310082,105.53626
Đồng Tháp,TX. Hồng Ngự,Điện máy Xanh Số 06 Thoại Ngọc Hầu,10.811495,105.34139
Đồng Tháp,huyện Tháp Mười,Điện máy Xanh Xã Đốc Binh Kiều,10.517472,105.909278
Đồng Tháp,huyện Châu Thành,"Điện máy Xanh Ấp Cụm dân cư trung tâm, xã Tân Phú Trung",10.255435,105.738306
Đồng Tháp,Huyện Lai Vung,"Điện máy Xanh Ấp Tân Bình, Xã Phong Hòa",10.171387,105.673585
Đồng Tháp,Tỉnh Đồng Tháp,"Điện máy Xanh Ấp Chiến Thắng, Xã Tân Hộ Cơ, Huyện Tân Hồng",10.9383473,105.4420023
Đồng Tháp,huyện Lấp Vò,"Điện máy Xanh Ấp Hưng Thạnh Đông, xã Long Hưng B",10.361479,105.52261
Đồng Tháp,H. Lai Vung,"Điện máy Xanh Khóm 1, TT. Lai Vung",10.285972,105.66269
Đồng Tháp,Tp. Sa Đéc,"Điện máy Xanh Khóm Tân Hòa, P. An Hòa",10.312271,105.74624
Đồng Tháp,huyện Tam Nông,"Điện máy Xanh Ấp Long Phú A, xã Phú Thành A",10.689587,105.437845
Đồng Tháp,H. Lấp Vò,"Điện máy Xanh Khóm Bình Thạnh 1, TT. Lấp Vò",10.362655,105.52446
Đồng Tháp,huyện Tam Nông,"Điện máy Xanh Ấp K10, xã Phú Hiệp",10.75646,105.511541
Đồng Tháp,huyện Cao Lãnh,"Điện máy Xanh Ấp 02, Xã Mỹ Long",10.351809,105.78254
Đồng Tháp,T. Đồng Tháp (Ngã Tư Đèn Đỏ,"Điện máy Xanh Số 74 Nguyễn Huệ, khóm 01, TT. Sa Rài, H. Tân Hồng",10.879249,105.4516
Đồng Tháp,H. Châu Thành,"Điện máy Xanh Số 62, QL. 80, khóm Mỹ Phú, TT Cái Tàu Hạ",10.26063,105.87553
Đồng Tháp,huyện Lai Vung,"Điện máy Xanh Ấp Tân Lợi, xã Tân Thành",10.256778,105.593667
Đồng Tháp,H. Tháp Mười,"Điện máy Xanh Số 119 Hùng Vương, Khóm 4, TT. Mỹ An",10.518649,105.84384
Đồng Tháp,Huyện Cao Lãnh,"Điện máy Xanh Ấp Đông Mỹ, Xã Mỹ Hội",10.395071,105.727973
Đồng Tháp,Thành phố Cao Lãnh,"Điện máy Xanh Số 03, Quốc lộ 30, Phường Mỹ Phú",10.461373,105.64381
Đồng Tháp,Huyện Châu Thành,"Điện máy Xanh Ấp Tân Thuận, Xã Tân Nhuận Đông",10.270248,105.830154
Đồng Tháp,huyện Lấp Vò,"Điện máy Xanh Ấp Khánh An, xã Tân Khánh Trung",10.37742,105.709108
Đồng Tháp,huyện Hồng Ngự,"Điện máy Xanh 12, khóm Thượng 1, thị trấn Thường Thới Tiền",10.812821,105.247648
Đồng Tháp,H. Tam Nông,"Điện máy Xanh 387 Võ Văn Kiệt, Khóm 3 , TT. Tràm Chim",10.669609,105.56234
Đồng Tháp,huyện Lai Vung,Điện máy Xanh Xã Vĩnh Thới,10.28655,105.660602
Đồng Tháp,huyện Tháp Mười,"Điện máy Xanh Ấp Mỹ Tây 2, xã Mỹ Quí",10.526167,105.724743
Đồng Tháp,TP. Cao Lãnh,"Điện máy Xanh Số nhà 1241, đường Quốc Lộ 30, khóm 01, phường 11",10.484891,105.584048
Đồng Tháp,H. Thanh Bình,"Điện máy Xanh Quốc lộ 30, Khóm Tân Đông B, TT. Thanh Bình",10.557959,105.49037
Đồng Tháp,Thành phố Cao Lãnh,Điện máy Xanh Phường 6,10.429194,105.634389
Đồng Tháp,H. Lấp Vò,"Điện máy Xanh Ấp Vĩnh Lợi, X. Vĩnh Thạnh",10.334909,105.61927
Đồng Tháp,huyện Thanh Bình,"Điện máy Xanh Ấp Bình Trung, xã Bình Thành",10.535518,105.541602
Đồng Tháp,huyện Tân Hồng,"Điện máy Xanh Ấp Tân Bảnh, xã Tân Phước",10.820402,105.514691
Đồng Tháp,Huyện Tháp Mười,"Điện máy Xanh Ấp 6B, Xã Trường Xuân",10.648871,105.78749
Đồng Tháp,H. Cao Lãnh,"Điện máy Xanh Số 114-116 Nguyễn Trãi, TT. Mỹ Thọ",10.44699,105.69498
Đồng Tháp,TP.Cao Lãnh,"83 Nguyễn Huệ, P.1",10.456291,105.63595
Đồng Tháp,TP. Sa Đéc,"Số 20 Trần Phú, Phường 1",10.296829,105.76462
Đồng Tháp,H. Cao Lãnh,X. Mỹ Long,10.440889,105.696441
Đồng Tháp,TP. Sa Đéc,"Nguyễn Sinh Sắc, Phường 01",10.290427,105.75785
Đồng Tháp,H. Tam Nông,Xã An Long,10.700729,105.381045
Đồng Tháp,H. Lai Vung,"Khóm 1, TT. Lai Vung",10.289137,105.65947
Đồng Tháp,Tỉnh Đồng Tháp,"Thửa đất số 25-27-30-31, Tờ bản đồ số 31, Thị Trấn Thanh Bình, Huyện Thanh Bình",10.5586044,105.4887087
Đồng Tháp,H. Tháp Mười,"Ấp 5A, xã Trường Xuân",10.656319,105.78451
Đồng Tháp,Huyện Cao Lãnh,Thị Trấn Mỹ Thọ,10.440889,105.696441
Đồng Tháp,H.Lấp Vò,"Số 280/1 Quốc Lộ 80, Khóm Bình Thạnh 1, TT.Lấp Vò",10.362627,105.52302
Đồng Tháp,TP.Cao Lãnh,"178 Nguyễn Huệ, P.2",10.4572851,105.6378793
Đồng Tháp,H.Châu Thành,"Số 83C, Quốc lộ 80, TT.Cái Tàu Hạ",10.260033,105.87384
Đồng Tháp,H. Tháp Mười,TT. Mỹ An,10.521361,105.847631
Đồng Tháp,H.Châu Thành,"Số 83C, Quốc lộ 80, TT.Cái Tàu Hạ",10.260033,105.87384
Đồng Tháp,TP. Cao Lãnh,Phường 11,10.486331,105.58007
Đồng Tháp,Thị xã Hồng Ngự,"Đường Hùng Vương, P.An Thạnh",10.807954,105.3414577
Đồng Tháp,H. Tân Hồng,"Số 50 Nguyễn Huệ, TT. Sa Rài",10.87986,105.45098
Đồng Tháp,Tỉnh Đồng Tháp,"Thửa đất số 1 và thửa số 2, Tờ bản đồ số 36, khóm Mỹ Trung, Phường Mỹ Phú, Thành phố Cao Lãnh",10.474928,105.64623
Đồng Tháp,TP Cao Lãnh,"Số 72 đường Phạm Hữu Lầu, phường 4",10.453059,105.63099
Đồng Tháp,H. Tam Nông,TT. Tràm Chim,10.670793,105.56015
Trà Vinh,huyện Duyên Hải,"Điện máy Xanh Ấp Rọ Say, xã Ngũ Lạc",9.608065,106.44068
Trà Vinh,H.Càng Long,"Điện máy Xanh Số 315-317, Quốc lộ 53, Khóm 5, TT.Càng Long",9.998735,106.20553
Trà Vinh,TX. Duyên Hải,"Điện máy Xanh Số 96-98, đường 2/9, khóm 1, P. 01",9.633841,106.49317
Trà Vinh,huyện Tiểu Cần,"Điện máy Xanh Khóm 1, thị trấn Cầu Quan",9.772369,106.130582
Trà Vinh,H. Càng Long,"Điện máy Xanh 41 Quốc lộ 53, ấp Nguyệt Lãng B, xã Bình Phú",9.959583,106.24356
Trà Vinh,huyện Cầu Ngang,"Điện máy Xanh Khóm 02, thị trấn Mỹ Long",9.8084,106.506586
Trà Vinh,H. Tiểu Cần,"Điện máy Xanh Số 03, quốc lộ 60, khóm 4, TT. Tiểu Cần",9.81428,106.19053
Trà Vinh,Huyện Trà Cú ,"Điện máy Xanh 186 Đường 3/2, Thị Trấn Trà Cú ",9.691318,106.25994
Trà Vinh,huyện Trà Cú,"Điện máy Xanh Ấp Trà Kha, xã Đại An",9.700615,106.259288
Trà Vinh,Tỉnh Trà Vinh,"Điện máy Xanh Số 249, Quốc Lộ 53, Khóm 1, Phường 2, Thị Xã Duyên Hải",9.686584,106.509865
Trà Vinh,Tp. Trà Vinh,"Điện máy Xanh 181 Võ Nguyên Giáp, khóm 6, P.8",9.914128,106.31425
Trà Vinh,Huyện Châu Thành,"Điện máy Xanh Khóm 02, Thị Trấn Châu Thành",9.871831,106.347378
Trà Vinh,H. Càng Long,"Điện máy Xanh Tỉnh lộ 911, ấp Tân An Chợ, X. Tân An",9.910647,106.15191
Trà Vinh,Huyện Cầu Kè,"Điện máy Xanh Khóm 5, Thị trấn Cầu Kè",9.869286,106.056224
Trà Vinh,huyện Duyên Hải,"Điện máy Xanh Khóm 06, thị trần Long Thành",9.606919,106.439701
Trà Vinh,H. Cầu Ngang,"Điện máy Xanh 177-196 Đường 3 tháng 2, khóm Mỹ Cẩm A, TT. Cầu Ngang",9.799264,106.45178
Trà Vinh,Huyện Trà Cú,"Điện máy Xanh Ấp Chợ Dưới, Xã Phước Hưng",9.759422,106.308923
Trà Vinh,Thành Phố Trà Vinh,"Điện máy Xanh 21 Điện Biên Phủ, Khóm 4, Phường 6",9.924263,106.34107
Trà Vinh,huyện Cầu Ngang,"Điện máy Xanh Ấp Chà Và, xã Vinh Kim",9.852588,106.444003
Trà Vinh,huyện Duyên Hải,"Điện máy Xanh Ấp La Bang Chợ, xã Đôn Châu",9.656472,106.380306
Trà Vinh,Xã Long Đức. Thành phố Trà Vinh,Điện máy Xanh Ấp Sa Bình,9.958729,106.339857
Trà Vinh,H. Tiểu Cần,"Khóm 2, TT. Tiểu Cần",9.811196,106.18931
Trà Vinh,TP Trà Vinh,"20 Hùng Vương, Phường 4",9.937137,106.34342
Trà Vinh,TX. Duyên Hải,"Số 127 Đường 19/5, Khóm 1, Phường 1",9.635317,106.4945119
Trà Vinh,H.Cầu Ngang,"Số 269, đường 3/2, khóm Minh Thuận B, TT. Cầu Ngang",9.7963451,106.45174
Trà Vinh,H. Càng Long,"Số 248 – 250 – 252, QL. 53, Khóm 3, TT. Càng Long",9.997245,106.205285
Trà Vinh,TP.Trà Vinh,"474B Nguyễn Đáng, Khóm 3, P.6",9.923439,106.34013
Trà Vinh,H. Trà Cú,"Số 283, đường 3/2, TT. Trà Cú",9.688557,106.26018
Trà Vinh,TP. Trà Vinh,"121D-123 Phạm Ngũ Lão, khóm 3, P. 01",9.944214,106.33964
Trà Vinh,Huyện Cầu Kè,"Số 209, Đường 30/4, Khóm 5, Thị Trấn Cầu Kè",9.8713071,106.05624
Trà Vinh,TP. Trà Vinh,"62 Điện Biên Phủ, khóm 3, P. 02",9.932574,106.34121
Sơn La,TP. Sơn La,"Điện máy Xanh 435 - 437 Chu Văn Thịnh, Tổ 11, P. Chiềng Lề",21.337916,103.91006
Sơn La,H. Mường La,"Điện máy Xanh Số 473, đường Tô Hiệu, TT. Ít Ong",21.518103,104.02553
Sơn La,Huyện Thuận Châu,"Điện máy Xanh Tiểu khu 7, Thị Trấn Thuận Châu",21.4352097,103.6922156
Sơn La,huyện Bắc Yên,Điện máy Xanh Thị trấn Bắc Yên,21.246145,104.432831
Sơn La,huyện Sông Mã,"Điện máy Xanh Tổ dân phố 10, thị trấn Sông Mã",21.051223,103.74989
Sơn La,Thành phố Sơn La,"Điện máy Xanh 335 Trần Đăng Ninh, Phường Quyết Tâm",21.306968,103.92713
Sơn La,Huyện Quỳnh Nhai,"Điện máy Xanh Xóm 5, Xã Mường Giàng",21.6492311,103.6287992
Sơn La,Tỉnh Sơn La,"Điện máy Xanh Tiểu khu 8, Thị Trấn Mộc Châu, Huyện Mộc Châu",20.840656,104.640375
Sơn La,huyện Mường La,"Điện máy Xanh Bản Giàn , xã Mường Bú",21.413212,104.012471
Sơn La,H. Mộc Châu,"Điện máy Xanh 54 Lê Thanh Nghị, tiểu khu 40, TT. Nông Trường",20.837851,104.67832
Sơn La,H. Mai Sơn,"Điện máy Xanh 91, Tiểu khu 19, TT. Hát Lót",21.196705,104.10677
Sơn La,Thành phố Sơn La,Điện máy Xanh Phường Chiềng Sinh,21.2648708,103.9799999
Sơn La,H. Thuận Châu,"Điện máy Xanh Tiểu Khu 6, X. Tông Lạnh",21.425536,103.75984
Sơn La,huyện Sông Mã,"Điện máy Xanh Bản Tân Lập, xã Chiềng Khương",20.924028,103.962639
Sơn La,huyện Yên Châu,Điện máy Xanh Xã Phiêng Khoài,20.9575,104.307806
Sơn La,H. Phù Yên,"Điện máy Xanh Khối 4, TT. Phù Yên",21.262544,104.64451
Sơn La,Huyện Yên Châu,"Điện máy Xanh Số Nhà 20 - 24,Tiểu khu 2, Thị trấn Yên Châu",21.046433,104.2994
Sơn La,H. Mai Sơn,"Điện máy Xanh Ngã 3 Cò Nòi, tiểu khu 2, X. Cò Nòi",21.129522,104.16099
Sơn La,huyện Mộc Châu,Điện máy Xanh Xã Chiềng Sơn,20.755833,104.603111
Sơn La,huyện Phù Yên,"Điện máy Xanh Bản Tân Ba, xã Gia Phù",21.263168,104.643261
Sơn La,H.Mộc Châu,"Tiểu khu 40, Thị trấn NT Mộc Châu",20.837403,104.68188
Sơn La,TP.Sơn La,"Số 1 Lò Văn Giá, P.Chiềng Lề",21.3425121,103.9089704
Sơn La,H. Thuận Châu,"Ngã 3 Chiềng Pấc, tiểu khu 4, X. Tông Lạnh",21.426347,103.75994
Sơn La,TX. Sơn La,"Số 355, Đường Lê Duẩn, Tổ 2, P. Chiềng Sinh",21.294,103.95504
Sơn La,H. Mộc Châu,"Số 2 Trần Huy Liệu, tiểu khu 7, TT. Mộc Châu",20.846569,104.64112
Sơn La,P. Quyết Thắng,Tổ 4,21.341013,103.90729
Sơn La,H. Sông Mã,Thị trấn Sông Mã,21.050639,103.751761
Sơn La,Tỉnh Sơn La,"Số 1, đường Trần Đăng Ninh, Phường Quyết Thắng, Thành phố Sơn La",21.32017,103.921722
Sơn La,H. Thuận Châu,"Tiểu khu 4, TT. Thuận Châu",21.435579,103.68945
Sóc Trăng,Huyện Cù Lao Dung,"Điện máy Xanh Ấp An Nghiệp, Xã An Thạnh 3",9.664572,106.151406
Sóc Trăng,huyện mỹ xuyên,"Điện máy Xanh Thửa đất số 839, tờ bản đồ số 10, ấp dương kiển, xã hòa tú 2",9.375337,105.890425
Sóc Trăng,huyện Kế Sách,"Điện máy Xanh Ấp An Thành, thị trấn Kế Sách",9.766682,105.983862
Sóc Trăng,thị xã Ngã Năm,"Điện máy Xanh Ấp Mỹ Thành, xã Mỹ Quới",9.467316,105.571251
Sóc Trăng,H. Thạnh Trị,"Điện máy Xanh 279 QL 1A, Ấp 1, TT. Phú Lộc",9.428924,105.74326
Sóc Trăng,TX. Vĩnh Châu,"Điện máy Xanh Khóm 2, P.01",9.331318,105.97941
Sóc Trăng,H. Mỹ Xuyên,"Điện máy Xanh Ấp khu 1, X. Thạnh Phú",9.4987901,105.84833
Sóc Trăng,Huyện Mỹ Xuyên,"Điện máy Xanh Ấp Hòa Khánh, Xã Thạnh Quới",9.4573964,105.7993873
Sóc Trăng,huyện Long phú,"Điện máy Xanh Ấp Saintard , xã Tân Thạnh",9.6229592,106.0389467
Sóc Trăng,huyện Mỹ Xuyên,"Điện máy Xanh Thửa đất 120, 121, 561, tờ bản đồ số 9, ấp cổ cò, xã Ngọc Tố",9.558065,105.990285
Sóc Trăng,huyện Kế Sách,"Điện máy Xanh Ấp Nam Hải, xã Đại Hải",9.751675,105.864522
Sóc Trăng,Huyện Kế Sách,"Điện máy Xanh Ấp Mang Cá, Xã Đại Hải",9.798987,105.856373
Sóc Trăng,H. Cù Lao Dung,"Điện máy Xanh 86 Đoàn Thế Trung, Ấp Chợ, TT. Cù Lao Dung",9.6691,106.15458
Sóc Trăng,huyện Long phú,"Điện máy Xanh Ấp Saintard , xã Tân Thạnh",9.6229592,106.0389467
Sóc Trăng,huyện Mỹ Xuyên,"Điện máy Xanh Thửa đất 120, 121, 561, tờ bản đồ số 9, ấp cổ cò, xã Ngọc Tố",9.558065,105.990285
Sóc Trăng,Huyện Trần Đề,"Điện máy Xanh Ấp Chợ, Xã Đại Ân 2",9.549129,106.167506
Sóc Trăng,H. Long Phú,"Điện máy Xanh Ấp 4, TT. Long Phú",9.607783,106.12547
Sóc Trăng,Huyện Mỹ Tú,"Điện máy Xanh Ấp Cầu Đồn, Tt.Huỳnh Hữu Nghĩa",9.635571,105.815474
Sóc Trăng,Huyện Trần Đề,"Điện máy Xanh Ấp Giồng Giữa, Thị Trấn Lịch Hội Thượng",9.478341,106.147158
Sóc Trăng,Thị xã Ngã Năm,"Điện máy Xanh Ấp Long Thạnh, Xã Tân Long",9.524243,105.671434
Sóc Trăng,thị xã Ngã Năm,"Điện máy Xanh Khóm 1, phường 2",9.62036,105.658325
Sóc Trăng,thị xã Ngã Năm,"Điện máy Xanh Khóm 1, phường 1",9.560795,105.600216
Sóc Trăng,H. Châu Thành,"Điện máy Xanh Số nhà 77, ấp Xây Đá, TT. Châu Thành",9.707164,105.89686
Sóc Trăng,Phường 6,"Điện máy Xanh 99 Hùng Vương, Khóm 1",9.616531,105.96577
Sóc Trăng,Huyện Trần Đề,"Điện máy Xanh Thửa đất số 157, tờ bản đồ 16, ấp Đầu Giồng, Thị Trấn Trần Đề",9.519101,106.19291
Sóc Trăng,H. Mỹ Xuyên,"Điện máy Xanh Ấp Chợ Cũ, TT. Mỹ Xuyên",9.564444,105.98008
Sóc Trăng,huyện Thạnh Trị,"Điện máy Xanh Ấp 15, xã Vĩnh Lợi",9.450801,105.630348
Sóc Trăng,Huyện Châu Thành,"Điện máy Xanh Ấp Châu Thành, Xã An Ninh",9.600902,105.910822
Sóc Trăng,Huyện Kế Sách,"Điện máy Xanh Ấp Ninh Thới, Xã Thới An Hội",9.838113,105.956495
Sóc Trăng,thị xã Vĩnh Châu,"Điện máy Xanh Ấp Ca Lạc, xã Lạc Hòa",9.360416,106.072318
Sóc Trăng,Huyện Kế Sách,"Điện máy Xanh Ấp An Ninh, TT An Lạc Thôn",9.927646,105.894751
Sóc Trăng,H.Mỹ Xuyên,"01 Tỉnh Lộ 8, ấp Thạnh Lợi, TT.Mỹ Xuyên",9.559691,105.99042
Sóc Trăng,TP. Sóc Trăng,"Số 267-269, đường Lê Hồng Phong, khóm 4, P. 3",9.593075,105.9745
Sóc Trăng,H. Kế Sách,"Ấp An Định, đường Phan Văn Hùng, TT. Kế Sách",9.769862,105.98341
Sóc Trăng,TP.Sóc Trăng,"13-15A Hùng Vương, P.06",9.610815,105.9701
Sóc Trăng,H. Long Phú,"Ấp Ngãi Hội, TT. Đại Ngãi",9.731792,106.06975
Sóc Trăng,TX.Vĩnh Châu,"53-54, Nguyễn Huệ, P.01",9.323949,105.98029
Sóc Trăng,TP. Sóc Trăng,"Số 2 Trần Hưng Đạo, P. 2",9.602066,105.97356
Sóc Trăng,thị xã Ngã Năm,"Đường Mai Thanh Thế, khóm 1",9.564027,105.59711
Sóc Trăng,Phường 01,50 - 52 Đường Hai Bà Trưng,9.603934,105.97446
Ninh Thuận,TP.Phan Rang - Tháp Chàm,"Điện máy Xanh 119 đường 21/8, khu 9, P.Phước Mỹ",11.574361,108.98244
Ninh Thuận,huyện Thuận Bắc,"Điện máy Xanh Thôn Ấn Đạt, xã Lợi Hải",11.717315,109.061698
Ninh Thuận,huyện Ninh Phước,"Điện máy Xanh Thôn Ninh Quý, xã Phước Sơn",11.525722,108.929336
Quảng Ninh,Tỉnh Quảng Ninh,"Điện máy Xanh Khu 4, Phường Vàng Danh, Thành phố Uông Bí",21.0983277,106.7968847
Ninh Thuận,Huyện Ninh Phước,"Điện máy Xanh Thôn Hiếu Lễ, Xã Phước Hậu",11.577938,108.92477
Ninh Thuận,Huyện Thuận Nam,Điện máy Xanh Khu quy hoạch cảng cá Cà Ná mở rộng,11.343303,108.8889
Ninh Thuận,Huyện Ninh Hải,"Điện máy Xanh Thôn Lương Cách, Xã Hộ Hải",11.62942,108.995934
Ninh Thuận,huyện Ninh Hải,"Điện máy Xanh Thôn Mỹ Tường 2, xã Nhơn Hải",11.582492,109.116129
Ninh Thuận,TP.Phan Rang - Tháp Chàm,"Điện máy Xanh Số 671 đường 21/8, P.Bảo An",11.592951,108.95462
Ninh Thuận,phường Đông Hải,Điện máy Xanh Khu phố 03,11.548804,109.023533
Ninh Thuận,H. Ninh Sơn,"Điện máy Xanh Quốc lộ 27, Thôn Hạnh Trí 1, X. Quảng Sơn",11.746018,108.79212
Ninh Thuận,H. Ninh Phước ,"Điện máy Xanh 117 QL1A , Khu Phố 5 , TT. Phước Dân ",11.524585,108.92611
Ninh Thuận,H. Ninh Hải ,"Điện máy Xanh 137-143 Đường Yên Ninh , KP. Khánh Chữ 1 , TT. Khánh Hải ",11.597249,109.0365
Ninh Thuận,Thành phố Phan Rang – Tháp Chàm,"Điện máy Xanh 279 Ngô Gia Tự, Khu phố 5, Phường Tấn Tài",11.562753,108.99518
Ninh Thuận,H. Ninh Phước,"Số 84 QL 1A, TT. Phước Dân",11.524232,108.92749
Quảng Ninh,Tỉnh Quảng Ninh,"Điện máy Xanh Tổ 112, Khu 8B, Phường Cẩm Phú, Thành phố Cẩm Phả",21.009484,107.273044
Quảng Ninh,Tp.Cẩm Phả,"Điện máy Xanh Tổ 57 Khu 5, P.Cửa Ông",21.030591,107.36506
Quảng Ninh,Quảng Ninh (Cách Ngã Tư Ao Cá 200m,"Điện máy Xanh Số 84, khu B QH khu định cư Đông Ga Hạ Long, P. Giếng Đáy, Tp. Hạ Long",20.974191,107.017809
Quảng Ninh,H. Đầm Hà,"Điện máy Xanh Phố Trần Phú, TT. Đầm Hà",21.354874,107.58688
Quảng Ninh,thành phố Hạ Long,"Điện máy Xanh Số 155 Nguyễn Văn Cừ, Phường Hồng Hà",20.941445,107.121304
Quảng Ninh,Tỉnh Quảng Ninh,"Điện máy Xanh Số 246-248, Khu Dân Cư Tự Xây Khu 10, Thị Trấn Trới, Huyện Hoành Bồ",21.020981,106.988773
Quảng Ninh,thị xã Quảng Yên,"Điện máy Xanh QH điều chỉnh lần 2 khu dân cư xóm Cửa Tràng, Bắc Cầu Chợ Rộc, xã Tiền An",20.93805,106.82937
Quảng Ninh,thị xã Uông Bí,"Điện máy Xanh Thửa đất số 47, tờ bản đồ số 17, thôn Bí Trung, xã Phương Đông",21.039888,106.726011
Quảng Ninh,TP. Cẩm Phả,"Điện máy Xanh Khu 5, P. Mông Dương",21.065952,107.32459
Quảng Ninh,TP. Cẩm Phả,"Điện máy Xanh Số 38 Trần Phú, P. Cẩm Tây",21.010577,107.28763
Quảng Ninh,T. Quảng Ninh (Siêu thị Hạ Trang cũ,"Điện máy Xanh 393 Trần Phú, P. Cao Xanh, TP. Hạ Long",20.971139,107.08188
Quảng Ninh,TX. Quảng Yên,"Điện máy Xanh KP. 4, P. Yên Giang",20.940249,106.79409
Quảng Ninh,thị xã Quảng Yên,"Điện máy Xanh Khu phố Đường Ngang, phường Minh Thành",21.005543,106.85725
Quảng Ninh,H. Tiên Yên,"Điện máy Xanh QL 18, Phố Long Thành,TT. Tiên Yên",21.33105,107.39713
Ninh Thuận,H. Ninh Sơn,"Số 434 đường Lê Duẩn, khu phố 3, TT. Tân Sơn",11.778186,108.78176
Ninh Thuận,TP. Phan Rang – Tháp Chàm,Phường Bảo An,11.5941,108.9506605
Ninh Thuận,Ninh Hải,"150 Yên Ninh, KP. Khánh Sơn 1, TT. Khánh Hải",11.5951389,109.0344282
Ninh Thuận,TP. Phan Rang - Tháp Chàm,"312 - 312A Thống Nhất, P. Phủ Hà",11.5709472,108.9914024
Ninh Thuận,TP. Phan Rang - Tháp Chàm ,"492 Thống Nhất , P. Mỹ Hương ",11.561973,108.98996
Quảng Ninh,Việt Nam. (Đối diện chợ Đức Dương,"Điện máy Xanh Phố Hoàng Hoa Thám, Thị Trấn Quảng Hà, Huyện Hải Hà, Tỉnh Quảng Ninh",21.450683,107.750463
Quảng Ninh,TP.Uông Bí,"Điện máy Xanh Đường Trần Nhân Tông, Tổ 7, Khu 1, P.Yên Thanh",21.033755,106.75742
Quảng Ninh,thị xã Đông Triều,"Điện máy Xanh Khu Vĩnh Tuy 1, phường Mạo Khê",21.053961,106.60723
Quảng Ninh,TP. Uông Bí,"Điện máy Xanh Tổ 5, khu Nam Tân, P. Nam Khê",21.023403,106.80937
Quảng Ninh,TX. Quảng Yên,"Điện máy Xanh Khu 7, P. Nam Hoà",20.930258,106.79692
Quảng Ninh,tỉnh Quảng Ninh (Gốc cây khế,"Điện máy Xanh 396 Vũ Văn Hiếu, Phường Hà Tu, thành phố Hạ Long",20.955803,107.14968
Quảng Ninh,H. Bình Liêu,"Điện máy Xanh Khu dân cư quy hoạch, thị trấn Bình Liêu",21.525249,107.399381
Quảng Ninh,TP. Cẩm Phả,"Điện máy Xanh Tổ 5, khu Hòa Lạc, P. Cẩm Bình",21.004416,107.28103
Quảng Ninh,T. Quảng Ninh (Đối diện Cây xăng cũ,"Điện máy Xanh Thôn Đông Sơn, X. Đông Xá, H. Vân Đồn",21.063673,107.41335
Quảng Ninh,TP. Hạ Long,"Điện máy Xanh Tòa nhà VNPT, số 1 đường 25/4, P. Bạch Đằng",20.952361,107.0848
Quảng Ninh,thành phố Cẩm Phả,"Điện máy Xanh Khu 4, phường Quang Hanh",21.0050784,107.21962
Quảng Ninh,Tỉnh Quảng Ninh,"Điện máy Xanh Khu phố 5, Phường Phong Cốc, Thị xã Quảng Yên",20.941885,106.804309
Quảng Ninh,TP. Móng Cái,"Điện máy Xanh Số 178B Hùng Vương, P. Ka Long",21.53156,107.95625
Quảng Ninh,TP. Hạ Long,"Số 230-268-269, Tổ 76, Khu 7, P. Hà Khẩu",20.980681,106.99943
Quảng Ninh,TP.Cẩm Phả,"Số 209 Đường Trần Phú, P.Cẩm Tây",21.012071,107.28415
Quảng Ninh,TP.Cẩm Phả,"617 Trần Phú, Tổ 65, P.Cẩm Thủy",21.009814,107.267669
Quảng Ninh,Tp. Móng Cái,"Khu Bắc Ka Long, P. Ninh Dương",21.534673,107.95148
Quảng Ninh,H. Hải Hà,"Số 2, phố Chu Văn An, TT. Quảng Hà",21.452612,107.75364
Quảng Ninh,H.Đông Triều,"Khu Vĩnh Thông,TT.Mạo Khê",21.056663,106.59815
Quảng Ninh,TX.Quảng Yên,"Số 13-15 phố Lê Lợi, P.Quảng Yên",20.938574,106.8016
Quảng Ninh,TP.Móng Cái,"Số 1, Đường Trần Phú, P.Trần Phú",21.532592,107.97197
Quảng Ninh,TP. Cẩm Phả,"Tổ 3, P. Cẩm Thạch",21.010105,107.25206
Quảng Ninh,TP. Cẩm Phả,"Tổ 109, khu 8B, P. Cẩm Phú",21.009908,107.33645
Quảng Ninh,TP.Uông Bí,"Số 487 Quang Trung, P.Quang Trung",21.034519,106.769852
Quảng Ninh,thành phố Cẩm Phả,"Tổ 2, Khu 5B, phường Cẩm Trung",21.004704,107.26918
Quảng Ninh,T. Quảng Ninh (ngã 3 Cầu Trắng,"Quốc lộ 18, tổ 4, khu 7, P. Hồng Hà, TP. Hạ Long",20.951146,107.13408
Quảng Ninh,huyện Vân Đồn,"Số 92, tổ 1, khu 4, thị trấn Cái Rồng",21.069344,107.41982
Quảng Ninh,TP.Hạ Long,"120 - 122 - 124 Đường Kênh Liêm, P.Cao Thắng",20.958848,107.09131
Quảng Ninh,TP. Cẩm Phả ,"Tổ 6, khu 2, P. Quang Hanh",21.008627,107.2358
Quảng Ninh,H. Hoành Bồ,"Số 62-63, TT. Trới",21.02227,106.98795
Quảng Ninh,TP. Hạ Long,"527 Hạ Long, P. Bãi Cháy",20.958407,107.02223
Quảng Ninh,Tỉnh Quảng Ninh,"Số nhà 500, Đường Quốc Lộ 18, Tổ 9, Khu 6, Phường Giếng Đáy, Thành phố Hạ Long",20.973285,107.015906
Phú Yên,Thành phố Tuy Hòa,"Điện máy Xanh Số 222 Hùng Vương, Phường 7",13.09327,109.3135
Phú Yên,thị xã Sông Cầu,"Điện máy Xanh Thôn Chánh Lộc, xã Xuân Lộc",13.5806328,109.1993584
Phú Yên,Huyện Đồng Xuân,"Điện máy Xanh Số 77 Lê Lợi, Khu phố Long Châu, Thị Trấn La Hai",13.378833,109.10484
Phú Yên,H.Sơn Hòa,"Điện máy Xanh 182 Trần Phú, TX. Củng Sơn",13.04777,108.97403
Phú Yên,Huyện Sơn Hoà,"Điện máy Xanh Thôn Ngân Điền, Xã Sơn Hà",13.061621,109.03435
Phú Yên,TP. Tuy Hòa,"Điện máy Xanh 34A Lê Lợi, P. 1",13.086817,109.30093
Phú Yên,huyện Tây Hoà,"Điện máy Xanh Thôn Mỹ Hạnh Trung 1, xã Hoà Phong",12.987465,109.095162
Phú Yên,huyện Đồng Xuân,"Điện máy Xanh Thôn Lãnh Vân, xã Xuân Lãnh",13.379515,109.104234
Phú Yên,H. Sông Hinh,"Điện máy Xanh Khóm 2, TT. Hai Riêng",12.98168,108.89093
Phú Yên,H. Tuy An,"Điện máy Xanh Ql 1 A, Kp. Trường Xuân, TT. Chí Thạnh",13.313056,109.21691
Phú Yên,Thị xã Đông Hoà,"Điện máy Xanh Đường 29, Khu Phố Phú Hiệp 2, Phường Hoà Hiệp Trung",12.996276,109.363682
Phú Yên,huyện Tây Hoà,"Điện máy Xanh Thôn Bình Thắng, xã Sơn Thành Đông",13.084321,109.299749
Phú Yên,Tỉnh Phú Yên,"Điện máy Xanh Thôn Chính Nghĩa, Xã An Phú, TP Tuy Hòa",13.1698756,109.2893523
Phú Yên,huyện Tây Hoà,Điện máy Xanh Thị trấn Phú Thứ,12.987465,109.095162
Phú Yên,huyện Tuy An,"Điện máy Xanh Thửa đất số 568 tờ bản đồ số 14, thôn Xuân Phu, xã An Ninh Tây",13.3410908,109.2537811
Phú Yên,huyện Sông Hinh,"Điện máy Xanh Thôn Tân Yên, xã Ealy",12.979622,108.768677
Phú Yên,TX.Sông Cầu,"Điện máy Xanh Số 171 Phạm Văn Đồng, P. Xuân Phú",13.456149,109.22148
Phú Yên,tỉnh Phú Yên,"Điện máy Xanh Thôn Phong Niên, Xã Hoà Thắng, Huyện Phú Hoà",13.055882,109.258226
Phú Yên,TP.Tuy Hòa,"244 B Trần Hưng Đạo, P.4",13.0878176,109.3117708
Phú Yên,H.Tuy An,"501 Quốc Lộ 1A, Thôn Chí Thạnh, TT. Chí Thạnh",13.307101,109.21575
Phú Yên,TP. Tuy Hòa,"Số 193 Nguyễn Huệ, Phường 5",13.091454,109.30536
Phú Yên,TP. Tuy Hòa,"201A Trần Hưng Đạo, P. 04",13.086284,109.307
Phú Yên,H. Đông Hòa,"Quốc Lộ 1A, thôn Thạch Chẩm, X. Hòa Xuân Tây",12.973542,109.33744
Phú Yên,TP. Tuy Hòa,"Số 294 Nguyễn Văn Linh, P. Phú Lâm",13.047695,109.31069
Ninh Bình,H. Yên Khánh,"Điện máy Xanh Phố 2, TT. Yên Ninh",20.182306,106.06358
Ninh Bình,H. Kim Sơn,"Điện máy Xanh Phố Thượng Kiệm, TT. Phát Diệm",20.091151,106.08558
Ninh Bình,H. Nho Quan,"Điện máy Xanh Phố Bái, TT. Nho Quan",20.323225,105.75087
Ninh Bình,H. Gia Viễn,"Điện máy Xanh Khu phố mới, Tỉnh lộ 477, TT. Me",20.347621,105.83296
Ninh Bình,TP Tam Điệp,"Điện máy Xanh Số 309 Quang Trung, Phường Trung Sơn",20.154589,105.91452
Ninh Bình,Thành Phố Ninh Bình,"Điện máy Xanh Số 2 Trần Hưng Đạo, Phố Phúc Trọng, Phường Phúc Thành",20.250399,105.97427
Ninh Bình,H. Yên Mô,"Điện máy Xanh Khu Trung Yên, TT. Yên Thịnh",20.161854,106.00562
Ninh Bình,Huyện Nho quan,"Điện máy Xanh Thôn Anh Trỗi, Xã Quỳnh Lưu",20.22299,105.84354
Ninh Bình,TP. Ninh Bình,"Điện máy Xanh Số 01 Lê Hồng Phong, P. Vân Giang",20.25686,105.97203
Quảng Nam,H. Núi Thành,"Điện máy Xanh 750 Phạm Văn Đồng, khối 4, TT. Núi Thành",15.426782,108.6643
Quảng Nam,Bắc Trà My,"Điện máy Xanh 59 Hùng Vương, Trà My",15.336753,108.21492
Quảng Nam,Huyện Phước Sơn,"Điện máy Xanh Khối 6, Thị Trấn Khâm Đức",15.444151,107.797099
Quảng Nam,huyện Đông Giang,"Điện máy Xanh Thôn Ngã Ba, Thị Trấn PRao",15.924666,107.649618
Quảng Nam,Tỉnh Quảng Nam,"Điện máy Xanh Thôn Phước Đức, Xã Quế Châu, Huyện Quế Sơn ",15.67233,108.221194
Quảng Nam,huyện Tiên Phước,Điện máy Xanh Xã Tiên Thọ,15.490197,108.303348
Quảng Nam,H. Thăng Bình,"Điện máy Xanh Đường Nguyễn Hoàng, TT. Hà Lam",15.742566,108.35875
Quảng Nam,Huyện Nam Trà My,Điện máy Xanh Xã Trà Mai,15.148154,108.12242
Quảng Nam,TX. Điện Bàn,"Điện máy Xanh Ngã ba Trần Nhân Tông và Tuệ Tĩnh, P. Vĩnh Điện",15.891529,108.24797
Quảng Nam,huyện Đại Lộc,"Điện máy Xanh Thôn Hà Nha, xã Đại Đồng",15.851035,108.0131129
Quảng Nam,H. Điện Bàn ,"Điện máy Xanh Quốc Lộ 1A, Thôn Bồ Mưng 2, X. Điện Thắng Bắc",15.943135,108.22218
Quảng Nam,huyện Điện Bàn,Điện máy Xanh Xã Điện Phước,15.885202,108.184555
Quảng Nam,Huyện Duy Xuyên,"Điện máy Xanh Thôn Hà Mỹ, Xã Duy Vinh",15.844873,108.3293739
Quảng Nam,huyện Nông Sơn,"Điện máy Xanh Thôn Trung Phước 3, xã Quế Trung",15.719382,108.059844
Quảng Nam,Thị xã Điện Bàn,Điện máy Xanh Phường Điện Dương,15.933,108.310161
Quảng Nam,H. Đại Lộc,"Điện máy Xanh Đường Nguyễn Tất Thành, TT. Ái Nghĩa",15.882951,108.11152
Quảng Nam,Huyện Duy Xuyên,"Điện máy Xanh Thửa đất số 121a, Tờ bản đồ số 5, Xã Duy Trung",15.821793,108.248731
Quảng Nam,Thành Phố Hội An,"Điện máy Xanh 16 Nguyễn Tất Thành, Khối Tân Hòa, Phường Tân An",15.886063,108.32159
Quảng Nam,Huyện Duy Xuyên,Điện máy Xanh Xã Duy Nghĩa,15.83869,108.277079
Quảng Nam,Huyện Đại Lộc,"Điện máy Xanh Thôn Tân An, xã Đại Lãnh",15.883077,108.112594
Quảng Nam,Thành phố Tam Kỳ,"Điện máy Xanh Đường Phan Bội Châu, Phường Tân Thạnh",15.573799,108.48179
Quảng Nam,H. Quế Sơn,"Điện máy Xanh Số 73-75 Phan Châu Trinh, TT. Đông Phú",15.672389,108.21661
Quảng Nam,Huyện Núi Thành,"Điện máy Xanh Quốc Lộ 1A, Thôn Diêm Phổ, Xã Tam Anh Nam",15.475611,108.59066
Quảng Nam,H. Hiệp Đức,"Điện máy Xanh Thôn 2, TT. Tân An",15.582334,108.10774
Quảng Nam,huyện Phú Ninh,"Điện máy Xanh Thôn kỳ phú, xã Tam Phước",15.53612,108.436097
Quảng Nam,Huyện Thăng Bình,"Điện máy Xanh Thôn Quý Thạnh 1, Xã Bình Quý",15.7129136,108.3402294
Quảng Nam,Huyện Đại Lộc,Điện máy Xanh Xã Đại Hiệp,15.925344,108.12959
Quảng Nam,TP.Tam Kỳ,"Điện máy Xanh 540 Phan Chu Trinh, P.An Sơn",15.565013,108.49449
Quảng Nam,H. Tiên Phước,"Điện máy Xanh Khối Phố Tiên Bình, TT. Tiên Kỳ",15.488546,108.30629
Quảng Nam,Huyện Phú Ninh,"Điện máy Xanh Thôn Tam Dân, Xã Tam Dân",15.525337,108.42267
Quảng Nam,huyện Thăng Bình,"Điện máy Xanh Tổ 06, thôn Phước Ấm, xã Bình Triều",15.759022,108.394777
Quảng Nam,Huyện Tây Giang,"Điện máy Xanh Khu dân cư O - CL3 Tây Bắc, Thôn Agrong, Xã A Tiêng",15.887484,107.4907497
Quảng Nam,Huyện Nam Giang,"Điện máy Xanh Thôn Dung, Thị trấn Thạnh Mỹ",15.746623,107.833435
Quảng Nam,Huyện Núi Thành,"Điện máy Xanh Thửa đất số 271, tờ bản đồ số 04, địa chỉ: xã Tam Tiến",15.43069,108.658075
Quảng Nam,H. Duy Xuyên,"Điện máy Xanh Số 90 Điện Biên Phủ, KP. Long Xuyên 2, TT. Nam Phước",15.841117,108.28313
Quảng Nam,TP. Hội An,"Điện máy Xanh 477-479 Hai Bà Trưng, Phường Tân An",15.887049,108.327594
Quảng Nam,TX. Điện Bàn,"Điện máy Xanh Khối Viêm Trung, P. Điện Ngọc",15.936128,108.25478
Quảng Nam,H. Quế Sơn,"Điện máy Xanh Thôn 8, Quốc lộ 1A, xã Hương An",15.781259,108.32893
Quảng Nam,Huyện Thăng Bình,"Điện máy Xanh Đường Quốc Lộ 1 A, X. Bình Trung, H. Quốc Lộ 1A, Xã Bình Trung",15.67278,108.41022
Quảng Nam,huyện Hiệp Đức,Điện máy Xanh Xã Bình Lâm,15.617824,108.221578
Quảng Nam,thị xã Điện Bàn,"Điện máy Xanh Thôn Hà An, xã Điện Phong",15.850192,108.249785
Quảng Nam,Huyện Đại Lộc,"Điện máy Xanh Thôn Quảng Huế, Xã Đại An",15.85278,108.12142
Quảng Nam,H. Núi Thành,"Điện máy Xanh Số 260 Phạm Văn Đồng, khối 2, TT. Núi Thành",15.435434,108.6447
Quảng Nam,Tp. Hội An,"Điện máy Xanh 371 Cửa Đại, P. Cẩm Châu",15.882418,108.34599
Quảng Nam,Huyện Đại Lộc,Điện máy Xanh Xã Đại Minh,15.84979,108.067194
Quảng Nam,TP.Tam Kỳ,"214 Phan chu Trinh, P.Phước Hòa",15.5697041,108.4875977
Quảng Nam,Tỉnh Quảng Nam,"02 Phan Chu Trinh, Phường An Mỹ, Thành phố Tam Kỳ",15.573461,108.482468
Quảng Nam,H. Duy Xuyên,"157-161 Điện Biên Phủ, TT. Nam Phước",15.841303,108.283449
Quảng Nam,TT. Điện Bàn,"Đường Trần Nhân Tông, P. Vĩnh Điện",15.894981,108.2455015
Quảng Nam,Huyện Thăng Bình,"Đường Tiểu La, Thị Trấn Hà Lam",15.7422,108.35882
Quảng Nam,H.Núi Thành,"177 Phạm Văn Đồng, Khối 2, TT.Núi Thành",15.435974,108.64406
Quảng Nam,H. Bắc Trà My,"252 Võ Nguyên Giáp, TT. Trà My",15.342541,108.22194
Quảng Nam,TP. Tam Kỳ,"622 Phan Chu Trinh, P. An Sơn",15.563506,108.49672
Quảng Nam,H.Đại Lộc,"Khu 5, TT.Ái Nghĩa",15.881821,108.12085
Quảng Nam,TP Tam Kỳ,"Số 339 Trần Cao Vân, P. An Sơn",15.559171,108.48854
Quảng Nam,TP. Hội An,"225 Lý Thường Kiệt, P.Cẩm Phô",15.8843087,108.3253428
Phú Thọ,Thành phố Việt Trì,"Điện máy Xanh Số 85 Trần Nguyên Hãn, Phường Bến Gót",21.304081,105.42165
Phú Thọ,Huyện Thanh Ba,"Điện máy Xanh Khu 8, Thị Trấn Thanh Ba",21.498774,105.13431
Phú Thọ,Huyện Sông Thao (nay là huyện Cẩm Khê),"Điện máy Xanh Ngã Tư bưu điện huyện Cẩm Khê,Thị trấn Sông Thao ",21.421639,105.13305
Phú Thọ,Huyện Tam Nông,"Điện máy Xanh Thửa đất số 129, tờ bản đồ số 11, Khu 13, Xã Cổ Tiết",21.28301,105.255742
Phú Thọ,Huyện Yên Lập,"Điện máy Xanh Khu Trung Tâm, Xã Lương Sơn",21.4531437,104.9720924
Phú Thọ,Huyện Cẩm Khê,"Điện máy Xanh Khu Minh Tân, Xã Minh Tân",21.4708789,105.0815658
Phú Thọ,Huyện Đoan Hùng,"Điện máy Xanh Ngã ba Cát Lem, Xã Bằng Luân",21.68093,105.07815
Phú Thọ,huyện Đoan Hùng,"Điện máy Xanh Thôn Ngọc Chúc 1, xã Chí Đám",21.623811,105.184327
Phú Thọ,huyện Phù Ninh,"Điện máy Xanh Số 07, khu 05, xã Tử Đà",21.411027,105.313537
Phú Thọ,H.Lâm Thao,"Điện máy Xanh Khu Tân Tiến, TT Lâm Thao",21.325407,105.28395
Phú Thọ,Huyện Cẩm Khê,"Điện máy Xanh Khu 2, Xã Phú Lạc",21.39078,105.14786
Phú Thọ,Thanh Sơn,"Điện máy Xanh Khu Tân Hương, xã Hương Cần",21.022423,105.241514
Phú Thọ,Huyện Tam Nông,"Điện máy Xanh Khu Tân Hưng, Thị Trấn Hưng Hóa",21.254324,105.291606
Phú Thọ,huyện Thanh Ba,Điện máy Xanh Xã Ninh Dân,21.496684,105.142364
Phú Thọ,huyện Phù Ninh,"Điện máy Xanh Khu 2, xã Trạm Thản",21.411027,105.313537
Phú Thọ,TX. Phú Thọ,"Điện máy Xanh Số 22 Đinh Tiên Hoàng, P. Hùng Vương",21.4047,105.21208
Phú Thọ,TX. Phú Thọ,"Điện máy Xanh Số nhà 84, khu 15, xã Phú Hộ",21.438459,105.25549
Phú Thọ,Huyện Yên Lập,"Điện máy Xanh Thôn Tân An 4, Thị Trấn Yên Lập",21.351828,105.05877
Phú Thọ,H. Tân Sơn,"Điện máy Xanh Đội 10, xã Tân Phú",21.218465,105.01643
Phú Thọ,H. Đoan Hùng,"Điện máy Xanh Số 36 Phố Đồng Tâm, TT. Đoan Hùng",21.621004,105.18816
Phú Thọ,H. Đoan Hùng,"Điện máy Xanh Đường quốc lộ 70, Khu Phố, xã Tây Cốc",21.632305,105.13213
Phú Thọ,H. Thanh Sơn,"Điện máy Xanh Phố Ba Mỏ, TT. Thanh Sơn",21.205883,105.17894
Phú Thọ,H. Thanh Thuỷ,Điện máy Xanh TT. Thanh Thuỷ,21.174287,105.28453
Phú Thọ,H. Hạ Hòa,"Điện máy Xanh Khu 8, TT. Hạ Hòa",21.56117,105.00111
Phú Thọ,huyện Thanh Thuỷ,"Điện máy Xanh Khu 22, xã Hoàng Xá",21.115137,105.281216
Phú Thọ,TP. Việt Trì,"Điện máy Xanh Số 1606A Hùng Vương, P. Gia Cẩm",21.321231,105.38595
Phú Thọ,Thanh Sơn,"Điện máy Xanh Khu trung tâm 2, xã Thu Cúc",21.27654,104.90718
Phú Thọ,huyện Phù Ninh,Điện máy Xanh Thị trấn Phong Châu,21.40756,105.31308
Phú Thọ,huyện Lâm Thao,Điện máy Xanh Thị trấn Hùng Sơn,21.35641,105.29336
Phú Thọ,huyện Lâm Thao,Điện máy Xanh Xã Tứ Xã,21.318258,105.286394
Phú Thọ,TX.Phú Thọ,"Số 84-86, phố Lê Đồng, P.Âu Cơ",21.397117,105.21993
Phú Thọ,H. Phù Ninh,"Khu Đường Nam, TT. Phong Châu",21.407194,105.3133
Phú Thọ,H. Cẩm Khê,"Khu 9, TT. Sông Thao",21.42205,105.13281
Phú Thọ,H.Thanh Sơn,"Số 18-20-22 đường 32, Phố Vàng, TT.Thanh Sơn",21.211644,105.17974
Phú Thọ,H. Thanh Thuỷ,"Khu Phố, TT. Thanh Thuỷ",21.174378,105.28429
Phú Thọ,TP. Việt Trì,"Số 1462, Đại lộ Hùng Vương, P. Tiên Cát",21.313567,105.3949
Phú Thọ,TP.Việt Trì,"2387-2389 Hùng Vương, Khu 7, P.Nông Trang",21.3280839,105.3795035
Phú Thọ,H. Tam Nông,"Khu 13, xã Cổ Tiết",21.284011,105.25693
Phú Thọ,huyện Lâm Thao,thị trấn Hùng Sơn,21.352909,105.29226
Phú Thọ,Huyện Hạ Hòa,"Khu 8, Thị Trấn Hạ Hòa",21.561302,105.003467
Phú Thọ,H. Yên Lập,"Khu Tân An 4, TT. Yên Lập",21.351235,105.05839
Phú Thọ,Huyện Đoan Hùng,"khu Tân Thành, Thị Trấn Đoan Hùng",21.625201,105.18438
Lai Châu,Thành Phố Lai Châu,"Điện máy Xanh Tổ 9, Phường Tân Phong",22.391292,103.46126
Lai Châu,huyện Phong Thổ,"Điện máy Xanh Thửa số 36, bản đồ số 92, bản Khổng Lào, xã Khổng Lào",22.533391,103.355898
Lai Châu,Huyện Mường Tè,Điện máy Xanh Thị trấn Mường Tè,22.383719,102.801589
Lai Châu,Tỉnh Lai Châu,"Điện máy Xanh Khu 5A, Thị Trấn Than Uyên, Huyện Than Uyên",21.952422,103.885024
Lai Châu,H. Tân Uyên ,"Điện máy Xanh Tổ 15, TT. Tân Uyên ",22.171398,103.75554
Lai Châu,H. Tam Đường,"Điện máy Xanh Khu F4 Trung tâm Thương Mại, TT. Tam Đường",22.32136,103.62452
Lai Châu,Thành phố Lai Châu,"Điện máy Xanh Số nhà 118, Đường Trần Hưng Đạo, Tổ 6, Phường Đoàn Kết",22.400125,103.456073
Lai Châu,H. Mường Tè,"Khu 10, TT. Mường Tè",22.383832,102.80206
Lai Châu,TP. Lai Châu,"Số 56 Trần Phú, tổ 4A, P. Tân Phong",22.394669,103.46327
Lai Châu,huyện Than Uyên,"Khu 1, thị trấn Than Uyên",21.950425,103.88286
Lai Châu,TP.Lai Châu,"Tổ dân phố 5, phường Đoàn Kết",22.399515,103.459498
Nam Định,Huyện Xuân Trường,"Điện máy Xanh Đường Liên Xã Mới, Thị trấn Xuân Trường",20.291501,106.343984
Nam Định,huyện Xuân Trường,Điện máy Xanh Xóm 10 xã Xuân Thượng,20.32969,106.32807
Nam Định,huyện Xuân Trường,"Điện máy Xanh Thửa đất số 80 và 184, tờ bản đồ số 11 và 31, xã Xuân Ninh",20.2428902,106.3241303
Nam Định,huyện Trực Ninh,"Điện máy Xanh Đường 21B, thị trấn Cổ Lễ",20.313701,106.270415
Nam Định,tỉnh Nam Định,"Điện máy Xanh Xã Hải Phú, huyện Hải Hậu",20.124056,106.232417
Nam Định,huyện Nghĩa Hưng,Điện máy Xanh Thị Trấn Quỹ Nhất,20.0511283,106.1434337
Nam Định,huyện Nam Trực,Điện máy Xanh Xã Nam Thanh,20.335159,106.177555
Nam Định,Huyện Nghĩa Hưng,"Điện máy Xanh Xóm 3, Thôn Đồng Lạc, Xã Nghĩa Lạc",20.111206,106.179132
Nam Định,Huyện Giao Thủy,"Điện máy Xanh Khu 4B, Tỉnh lộ 489, Thị Trấn Ngô Đồng",20.280564,106.44383
Nam Định,TP. Nam Định,"Điện máy Xanh Số 107, Quốc lộ 10, xã Lộc Hòa",20.438355,106.15394
Nam Định,huyện Ý Yên,"Điện máy Xanh Xóm Tân Lập, xã Yên Tiến",20.329247,106.010258
Nam Định,TP. Nam Định,"Điện máy Xanh Tổ 4, Đại Lộ Đông A, P. Lộc Vượng",20.434783,106.16314
Nam Định,Huyện Giao Thủy,"Điện máy Xanh Khu Lâm Quý, Thị Trấn Quất Lâm",20.208748,106.3669
Nam Định,huyện Nam Trực,"Điện máy Xanh Thôn Thượng Nông, xã Bình Minh",20.323386,106.213752
Nam Định,Huyện Nghĩa Hưng,"Điện máy Xanh TDP 01, Thị trấn Liễu Đề",20.223415,106.181859
Nam Định,tỉnh Nam Định,"Điện máy Xanh Thửa đất 166 và 458, tờ bản đồ số 02 và 09, khu 4B, Thị Trấn Cồn, huyện Hải Hậu",20.1234722,106.2786685
Nam Định,Tỉnh Nam Định,"Điện máy Xanh Thửa đất số 05-06, tờ bản đồ số 38, Xóm 5, Xã Hồng Thuận, Huyện Giao Thủy",20.2646416,106.4912061
Nam Định,Huyện Vụ Bản,Điện máy Xanh Thị Trấn Gôi,20.331506,106.073697
Nam Định,huyện Nghĩa Hưng,Điện máy Xanh Xã Nghĩa Tân,20.05625,106.18615
Nam Định,huyện Giao Thủy,"Điện máy Xanh Thửa đất số 262, tờ bản đồ số 22, xóm 09, xã Giao Yến",20.235399,106.396503
Nam Định,Huyện Nghĩa Hưng,"Điện máy Xanh Xóm 12, Xã Nghĩa Châu",20.235769,106.134944
Nam Định,Huyện Trực Ninh,Điện máy Xanh Xã Trực Thuận,20.2470404,106.1793895
Nam Định,Tỉnh Nam Định,"Điện máy Xanh Xã Yên Dương, Huyện Ý Yên",20.329247,106.010258
Nam Định,Tỉnh Nam Định,"Điện máy Xanh Thửa đất số 38 và 39, tờ bản đồ 3-1, đội 6, Xã Liên Minh, Huyện Vụ Bản",20.3482879,106.109808
Nam Định,huyện Trực Ninh,"Điện máy Xanh Xóm Bắc Thịnh, thị trấn Cát Thành",20.2612069,106.2730644
Nam Định,H.Hải Hậu,"Điện máy Xanh Xóm 15 Trung Lễ, Xã Hải Hưng",20.198609,106.30562
Nam Định,Huyện Nam Trực,"Điện máy Xanh Thửa đất số 48, tờ bản đồ số 3, xã Nam Dương",20.328337,106.17556
Nam Định,huyện Nam Trực,Điện máy Xanh Xã Hồng Quang,20.38392,106.21741
Nam Định,huyện Trực Ninh,"Điện máy Xanh Xóm Đề Thám, xã Trực Cường",20.200491,106.215089
Nam Định,huyện Hải Hậu,"Điện máy Xanh Xóm 9, xã Hải Thịnh, huyện Hải Hậu, tỉnh Nam Định (Nay là thị trấn Thịnh Long ",20.0411361,106.2202648
Nam Định,huyện Ý Yên,Điện máy Xanh Xã Yên Đồng,20.2495117,106.0685271
Nam Định,Huyện Vụ Bản,"Điện máy Xanh Ngay Cầu Dần, Xã Trung Thành",20.382019,106.09069
Nam Định,Huyện Hải Hậu,"Điện máy Xanh Xóm 16, Xã Hải Anh",20.205103,106.261353
Nam Định,TP. Nam Định,"Số 258, Đường Hàn Thuyên, P. Trần Tế Xương",20.438562,106.18561
Nam Định,H.Trực Ninh,"Số 186 đường 21B, TT.Cổ Lễ",20.323087,106.26541
Nam Định,TP. Nam Định,"Số 458 - 460 - 462 Trần Hưng Đạo, P. Quang Trung",20.432531,106.17084
Nam Định,Tp. Nam Định,"Số 59 Đường Điện Biên, Tổ 15, Phường Cửa Bắc",20.42954,106.16726
Nam Định,TP.Nam Định,"157 Trần Hưng Đạo, P.Trần Hưng Đạo",20.4261559,106.1757815
Nam Định,TP. Nam Định,"807 Trường Chinh, P. Hạ Long",20.440418,106.18543
Nam Định,Tp. Nam Định,"Số 570-572 Giải Phóng, P. Văn Miếu",20.417752,106.16065
Nam Định,Tp. Nam Định,"Số 570-572 Giải Phóng, P. Văn Miếu",20.417752,106.16065
Nam Định,H. Vụ Bản,"Ngã 4 Gôi - phố Non Côi, TT. Gôi",20.331692,106.07443
Nghệ An,Tỉnh Nghệ An,"Điện máy Xanh Thửa đất 624, tờ bản đồ số 3, Xóm Mỹ Thượng, Xã Diễn Mỹ, Huyện Diễn Châu",19.0662266,105.6190141
Nghệ An,Huyện Yên Thành,"Điện máy Xanh Khối 1, Thị trấn Yên Thành",18.998764,105.478325
Nghệ An,huyện Diễn Châu,"Điện máy Xanh Xóm 14, xã Diễn Yên",19.09597,105.57725
Nghệ An,Huyện Diễn Châu,"Điện máy Xanh Thửa đất số 327-328-330-331, Tờ bản đồ số 05, Khối 4, Thị Trấn Diễn Châu",18.975852,105.600516
Nghệ An,huyện Anh Sơn,"Điện máy Xanh Khối 4A, Thị trấn Anh Sơn",18.932386,105.083305
Nghệ An,H. Tân Kỳ,"Điện máy Xanh Khối 7, TT. Tân Kỳ",19.051109,105.26865
Nghệ An,H. Quỳ Hợp,"Điện máy Xanh Khối 4, TT. Quỳ Hợp",19.325681,105.19001
Nghệ An,Tỉnh Nghệ An,"Điện máy Xanh Thửa đất số 1369, tờ bản đồ số 125-57, Xóm Tuần A, Xã Quỳnh Châu, Huyện Quỳnh Lưu",19.2112206,105.5423689
Nghệ An,huyện Diễn Châu,"Điện máy Xanh Xóm 14, xã Diễn An",18.980878,105.600706
Nghệ An,TP. Vinh,"Điện máy Xanh Số 7C Nguyễn Trãi, P. Quán Bầu",18.701776,105.67312
Nghệ An,Tp. Vinh,"Điện máy Xanh Số 218 Lê Duẩn, P. Trường Thi",18.665021,105.6899
Nghệ An,huyện Quỳnh Lưu,"Điện máy Xanh Thôn 5, xã Quỳnh Nghĩa",19.127438,105.714496
Nghệ An,H. Diễn Châu,"Điện máy Xanh Thôn Cầu Bùng, xã Diễn Kỷ",19.011445,105.58749
Nghệ An,Huyện Con Cuông,"Điện máy Xanh Khối 4, Thị trấn Con Cuông",19.052404,104.87538
Nghệ An,huyện Yên Thành,"Điện máy Xanh Thửa đất số 404, tờ bản đồ số 17, địa chỉ: xóm 5, xã Trung Thành",18.996542,105.466897
Nghệ An,tỉnh Nghệ An,"Điện máy Xanh Xóm Chí Thành, xã Quỳnh Bảng, huyện Quỳnh Lưu",19.14218,105.626708
Nghệ An,TP. Vinh,"Điện máy Xanh Số 7 Đường Quang Trung, P. Quang Trung",18.667165,105.67376
Nghệ An,Thị xã Thái Thòa,"Điện máy Xanh Xóm 8, xã Nghĩa Thuận",19.2706559,105.4856365
Nghệ An,thị xã Hoàng Mai,"Điện máy Xanh Khối 16, phường Quỳnh Xuân",19.212809,105.685993
Nghệ An,huyện Quỳnh Lưu,"Điện máy Xanh Xóm 3, xã Quỳnh Thạch",19.174792,105.656281
Nghệ An,Thị xã Thái Thòa,"Điện máy Xanh Xóm 8, xã Nghĩa Thuận",19.2706559,105.4856365
Nghệ An,thị xã Hoàng Mai,"Điện máy Xanh Khối 16, phường Quỳnh Xuân",19.212809,105.685993
Nghệ An,huyện Quỳnh Lưu,"Điện máy Xanh Xóm 3, xã Quỳnh Thạch",19.174792,105.656281
Nghệ An,huyện Thanh Chương,"Điện máy Xanh Thôn Trung Đức, xã Võ Liệt",18.72513,105.3675808
Nghệ An,Huyện Thanh Chương,"Điện máy Xanh Khối 4, Thị Trấn Thanh Chương",18.779702,105.33454
Nghệ An,Tỉnh Nghệ An,"Điện máy Xanh Thôn 8, Xã Đỉnh Sơn, Huyện Anh Sơn",19.028191,104.96543
Nghệ An,H. Quỳ Châu,"Điện máy Xanh Khối 2B, TT. Quỳ Châu",19.550981,105.0963
Nghệ An,huyện Tân Kỳ,"Điện máy Xanh Thửa đất số 383, tờ bản đồ số 9, địa chỉ: Xóm Cừa, xã Nghĩa Hoàn",19.1427883,105.2784406
Nghệ An,huyện Tương Dương,"Điện máy Xanh Thửa đất số154, tờ bản đồ số 12, địa chỉ: Làng Khe Bố, xã Tam Quang",19.1574665,104.6786205
Nghệ An,huyện Tương Dương,"Điện máy Xanh Thửa đất 121, tờ bản đồ số 07, Khối Hòa Tân, thị trấn Hòa Bình",19.2626761,104.4745488
Nghệ An,TX. Hoàng Mai,"Điện máy Xanh Khối 3, QL 1A, P. Quỳnh Thiện",19.252173,105.71066
Nghệ An,huyện Nghĩa Đàn,"Điện máy Xanh Xóm Chợ, xã Nghĩa Hội",19.34596,105.497709
Nghệ An,huyện Đô Lương,"Điện máy Xanh Khối 4, thị trấn Đô Lương",18.900381,105.309367
Nghệ An,Tỉnh Nghệ An,"Điện máy Xanh Xóm Trung Tâm, Xã Nghi Ân, Thành phố Vinh",18.668602,105.683662
Nghệ An,H.Nam Đàn,"Điện máy Xanh Xóm Nam Sơn, Xã Vân Diên",18.701454,105.49574
Nghệ An,Thành Phố Vinh,"Điện máy Xanh 78 Nguyễn Thị Minh Khai, Phường Hưng Bình",18.676708,105.67676
Nghệ An,Huyện Yên Thành,"Điện máy Xanh Xóm 10, Xã Bảo Thành",18.9273563,105.4767048
Nghệ An,huyện Diễn Châu,"Điện máy Xanh Thửa đất số 430, tờ bản đồ 4, xóm 1, xã Diễn Xuân",18.980878,105.600706
Nghệ An,huyện Quỳnh Lưu,"Điện máy Xanh Xóm 13, xã Sơn Hải",19.10889,105.67186
Nghệ An,TX. Thái Hòa,"Điện máy Xanh Số 116 Nguyễn Trãi, K. Kim Tân, P. Hòa Hiếu",19.322224,105.43194
Nghệ An,H. Quỳnh Lưu,"Điện máy Xanh QL1A, Khối 6, TT. Cầu Giát",19.142493,105.62643
Nghệ An,Tỉnh Nghệ An (Cách Trụ sở UBND xã Nghĩa Xuân 300m,"Điện máy Xanh Xóm Dinh, Xã Nghĩa Xuân, Huyện Quỳ Hợp",19.350458,105.290434
Nghệ An,H. Quế Phong,"Điện máy Xanh Thửa đất số 93 - 94, khối 4, TT. Kim Sơn",19.608795,104.92298
Nghệ An,TP.Vinh,"Số 78 Nguyễn Thị Minh Khai, P.Hưng Bình",18.6765362,105.6768465
Nghệ An,TP.Vinh,"Số 219 Lê Lợi, P.Lê Lợi",18.686288,105.67438
Nghệ An,Tỉnh Nghệ An,"Khối Tân Thành, Phường Hòa Hiếu, Thị xã Thái Hòa",19.320748,105.440504
Nghệ An,Huyện Yên Thành,"Quốc lộ 7B, Khối 1, TT. Yên Thành",18.998864,105.47938
Nghệ An,TP.Vinh,"92 Nguyễn Phong Sắc, phường Hưng Dũng",18.681689,105.69784
Nghệ An,H.Quỳnh Lưu,"Khối 01, đường quốc lộ 1A, TT.Cầu Giát",19.146513,105.63067
Nghệ An,TP. Vinh,"Số 6, đường Hà Huy Tập, P. Hà Huy Tập",18.687294,105.68099
Nghệ An,H.Đô Lương,"Quốc lộ 7A, khối 2, TT.Đô Lương",18.903794,105.31113
Nghệ An,TP.Vinh,"Số 2, đường Đặng Thái Thân, P.Cửa Nam",18.6670124,105.664562
Nghệ An,H. Quỳ Hợp,"Xóm Tân Mỹ, xã Tam Hợp",19.359901,105.28122
Nghệ An,H. Anh Sơn,"Khối 4B, TT. Anh Sơn",18.932085,105.08323
Nghệ An,H. Con Cuông,"Khối 4, TT. Con Cuông",19.052442,104.87524
Kon Tum,Tỉnh Kon Tum,"Điện máy Xanh Số 348 - đường Trần Hưng Đạo, Phường Quyết Thắng, Thành phố Kon Tum",14.349938,108.002778
Kon Tum,thành phố Kon Tum,"Điện máy Xanh Đường Võ Nguyên Giáp, phường Duy Tân",14.3763,108.00957
Kon Tum,huyện Kon Plong,"Điện máy Xanh Đường Võ Nguyên Giáp, tổ dân phố 3, thị trấn Măng Đen",14.603454,108.288585
Kon Tum,huyện Đăk Glei,"Điện máy Xanh Thôn 16/5, thị trấn Đăk Glei",15.074833,107.741203
Kon Tum,huyện Đăk Tô,"Điện máy Xanh Đường Hùng Vương, Khối 8, thị trấn Đăk Tô",14.646464,107.844045
Kon Tum,huyện Kon Rẫy,"Điện máy Xanh Thôn 9, xã Đăk Ruồng",14.506041,108.241512
Kon Tum,thành phố Kon Tum,"Điện máy Xanh Thôn Lâm Tùng, xã Ia Chim",14.311836,107.927928
Kon Tum,H. Đắk Hà,"Điện máy Xanh Số 296 Hùng Vương, tổ dân phố 6, TT. Đắk Hà",14.515376,107.92021
Cao Bằng,H. Hà Quảng,"Điện máy Xanh Tổ Xuân Lộc, TT. Xuân Hòa",22.902112,106.07339
Cao Bằng,Tỉnh Cao Bằng,"Điện máy Xanh Bản Vạn 1, Xã Bế Triều, Huyện Hòa An",22.733117,106.15575
Cao Bằng,Huyện Trùng Khánh,"Điện máy Xanh Tổ 3, Thị trấn Trà Lĩnh",22.824925,106.32442
Cao Bằng,H. Nguyên Bình,"Điện máy Xanh Tổ dân phố 4, TT. Nguyên Bình",22.649925,105.96009
Cao Bằng,H. Quảng Uyên,"Điện máy Xanh 125 phố Hòa Nam, TT Quảng Uyên",22.68986,106.44279
Cao Bằng,Huyện Hà Quảng,"Điện máy Xanh Xóm 5, Thị Trấn Thông Nông",22.7844367,105.9833134
Cà Mau,Huyện Trần Văn Thời,"Điện máy Xanh Khóm 9, Thị trấn Trần Văn Thời",9.074192,104.96557
Cà Mau,Huyện Cái Nước,"Điện máy Xanh Thửa đất số 197, Tờ bản đồ số 16 và Thửa Ấp Thị Tường A, Xã Hưng Mỹ",8.940371,105.012639
Cà Mau,Huyện Thới Bình,"Điện máy Xanh Ấp Nhà Máy B, Xã Tân Phú",9.346524,105.089765
Cà Mau,H. Cái Nước,"Điện máy Xanh 288, đường Quốc lộ 1A, khóm 2, TT. Cái Nước",8.9439061,105.01087
Cà Mau,Thành Phố Cà Mau,"Điện máy Xanh 18, đường Ngô Quyền, Phường 02",9.1793171,105.1468
Cà Mau,H. Trần Văn Thời,"Điện máy Xanh Khóm 7, TT. Sông Đốc",9.042334,104.83329
Cà Mau,Tỉnh Cà Mau,"Điện máy Xanh Ấp Cái Đôi, Xã Phú Tân, Huyện Phú Tân",8.869381,104.841041
Cà Mau,H. Cái Nước,"Điện máy Xanh Ấp Phấn Thạnh, xã Thạnh Phú",9.110885,105.10041
Cà Mau,Phường 8,Điện máy Xanh Số 155A đường Nguyễn Tất Thành,9.163578,105.14302
Cà Mau,huyện Đầm Dơi,"Điện máy Xanh Thửa đất số 917, tờ bản đồ số 16, ấp Chà Là, xã Trần Phán",8.964911,105.110725
Cà Mau,huyện Trần Văn Thời,"Điện máy Xanh Ấp Đá Bạc, xã Khánh Bình Tây",9.178175,104.850396
Cà Mau,H. Đầm Dơi,"Điện máy Xanh Đường 19/5, khóm 4, TT. Đầm Dơi",8.996056,105.19612
Cà Mau,H. Thới Bình,"Điện máy Xanh Khóm 8, TT. Thới Bình",9.345385,105.0895
Cà Mau,Huyện Đầm Dơi,"Điện máy Xanh Ấp Tân Long A, Xã Tân Tiến",8.968996,105.322189
Cà Mau,Huyện Ngọc Hiển,"Điện máy Xanh Ấp Lạch Vàm, Xã Đất Mũi",8.600818,104.755641
Cà Mau,Huyện Thới Bình,"Điện máy Xanh Ấp 02, Xã Trí Phải",9.405178,105.150851
Cà Mau,TP. Cà Mau,"Điện máy Xanh Số 245, ấp 3, X. Tắc Vân",9.168805,105.26943
Cà Mau,H. Thới Bình,"Điện máy Xanh Số 26, ấp 3, Xã Tân Lộc",9.281083,105.20333
Cà Mau,H. Phú Tân,"Điện máy Xanh Khóm 2, TT. Cái Đôi Vàm",8.855581,104.81093
Cà Mau,TP. Cà Mau,"Điện máy Xanh Số 12 Trần Hưng Đạo, khu phố 3B, phường 5",9.178716,105.15606
Cà Mau,Thành phố Cà Mau,"Điện máy Xanh Thửa đất số 11, Tờ bản đồ số 27, Khóm 5, Phường Tân Thành",9.1855675,105.2102832
Cà Mau,H. U Minh,"Điện máy Xanh Khóm 1, thị trấn U Minh",9.408487,104.96903
Cà Mau,Tỉnh Cà Mau,"Điện máy Xanh Ấp Đầm Cùng, Xã Trần Thới, Huyện Cái Nước",8.860434,105.017692
Cà Mau,huyện U Minh,"Điện máy Xanh Ấp 3, xã Khánh Hội",9.342701,104.828879
Cà Mau,Huyện Năm Căn,"Điện máy Xanh Số 00780 khu vực 1, đường Nguyễn Tất Thành, Khóm 2, Thị Trấn Năm Căn",8.7623941,104.99402
Cà Mau,H. Trần Văn Thời,"Khóm 7, TT. Trần Văn Thời",9.075164,104.96571
Cà Mau,TP.Cà Mau,"125B – 127 Nguyễn Tất Thành, khóm 7, P.8",9.1702609,105.1466274
Cà Mau,Huyện Năm Căn,"Số 00780 khu vực 1, đường Nguyễn Tất Thành, Khóm 2, Thị Trấn Năm Căn",8.761081,104.99379
Cà Mau,TP.Cà Mau,"52 Nguyễn Trãi, P.9",9.180822,105.14416
Cà Mau,TP. Cà Mau,"Số 255, Quốc lộ 1A, ấp 3, xã Tắc Vân",9.168258,105.26816
Cà Mau,TP.Cà Mau,"2A Trần Hưng Đạo, Khóm 6, P.5",9.176123,105.153181
Cà Mau,Huyện Trần Văn Thời,"Khóm 10, Thị Trấn Sông Đốc",9.042727,104.834758
Cà Mau,H. Đầm Dơi,"Số 57-59-61, đường Dương Thị Cẩm Vân, TT. Đầm Dơi",8.994982,105.19842
Cần Thơ,Quận Ô Môn,"Điện máy Xanh Khu vực Thới Trinh A, Phường Thới An",10.109265,105.622915
Cần Thơ,Q. Ô Môn,"Điện máy Xanh Thửa số 82, Tờ bản đồ số 59 , KV 11, p. Châu Văn Liêm",10.109394,105.624039
Cần Thơ,Q. Ninh Kiều,"Điện máy Xanh Số 8 Hòa Bình, P. An Cư",10.03489,105.78554
Cần Thơ,quận Bình Thuỷ,"Điện máy Xanh Đường Nguyễn Chí Thanh, khu vực Thới Thuận, phường Thới An Đông",10.0799447,105.6901979
Cần Thơ,Q. Bình Thủy,"Điện máy Xanh 115 Cách Mạng Tháng Tám, P. An Thới",10.069026,105.75631
Cần Thơ,Q. Ninh Kiều,"Điện máy Xanh 01 Bis, KDC 91B, Đường Nguyễn Văn Linh, P.An Khánh",10.025659,105.758483
Cần Thơ,Q. Thốt Nốt,"Điện máy Xanh Số 520, tổ 25, Quốc lộ 91, P. Thốt Nốt",10.272304,105.53027
Cần Thơ,Thành phố Cần Thơ,"Điện máy Xanh Đường Cách Mạng Tháng 8, Phường An Thới, Quận Bình Thuỷ",10.055264,105.770423
Cần Thơ,Huyện Phong Điền,"Điện máy Xanh Ấp Thới Giai, Xã Gia Xuân",9.995441,105.669002
Cần Thơ,quận Ô Môn,"Điện máy Xanh Khu vực Thới Mỹ, phường Thới Long",10.171621,105.589137
Cần Thơ,Huyện Phong Điền,"Điện máy Xanh Ấp Trường Thuận, Xã Trường Long",9.981348,105.634308
Cần Thơ,Huyện Cờ Đỏ,"Điện máy Xanh Ấp Thạnh Quới 1, Xã Trung Hưng",10.18162,105.47879
Cần Thơ,huyện Thốt Nốt,"Điện máy Xanh Ấp Quy Lân 5, xã Thạnh Quới, huyện Vĩnh Thạnh, thành phố Cần Thơ (Ấp Quy Lân 5, xã Thạnh Quới",10.213866,105.379639
Cần Thơ,Quận Bình Thủy,"Điện máy Xanh Đường Bùi Hữu Nghĩa (tỉnh 918), khu vực Bình Dương B, Phường Long Tuyền",10.022945,105.718455
